esgType,Sector,industry,Company,locationName,locationGeneralType,locationType,countryName,latitude,longitude,NonGHGAirPollutants,GHGEmissions,SoilPollutants,SolidWaste,WaterPollutants,WaterUse,WaterQuality,waterStressScore,MarineEcosystemUse,FreshwaterEcosystemUse,ProductionProcess,landUsage,TotalSpeciesCount1km,located_within_KBA_or_Not,located_within_WPA_or_Not,area_KBA_1km,area_WPA_1km,distance_Kms_to_closest_KBA,distance_Kms_to_closest_WPA,AnnualHurricaneOccurance250Km,AnnualMaxStormSpeed250Km,AnnualLandslideOccurance25Km,RiverineInundation2030RCP45ReturnPeriod100,RiverineInundation2050RCP45ReturnPeriod100,RiverineInundation2080RCP45ReturnPeriod100,RiverineInundation2030RCP85ReturnPeriod100,RiverineInundation2050RCP85ReturnPeriod100,RiverineInundation2080RCP85ReturnPeriod100,CoastalInundation2030RCP45ReturnPeriod100Percentile95,CoastalInundation2030RCP85ReturnPeriod100Percentile95,CoastalInundation2050RCP45ReturnPeriod100Percentile95,CoastalInundation2050RCP85ReturnPeriod100Percentile95,CoastalInundation2080RCP45ReturnPeriod100Percentile95,CoastalInundation2080RCP85ReturnPeriod100Percentile95,heatwaveRiskScore_2025_RCP45,heatwaveRiskScore_2025_RCP85,heatwaveRiskScore_2050_RCP45,heatwaveRiskScore_2050_RCP85,heatwaveRiskScore_2075_RCP45,heatwaveRiskScore_2075_RCP85,heatwaveRiskScore_2100_RCP45,heatwaveRiskScore_2100_RCP85,coldwaveRiskScore_2025_RCP45,coldwaveRiskScore_2025_RCP85,coldwaveRiskScore_2050_RCP45,coldwaveRiskScore_2050_RCP85,coldwaveRiskScore_2075_RCP45,coldwaveRiskScore_2075_RCP85,coldwaveRiskScore_2100_RCP45,coldwaveRiskScore_2100_RCP85,annualAccumilatedRainfall2030RCP45,annualAccumilatedRainfall2030RCP85,annualAccumilatedRainfall2050RCP45,annualAccumilatedRainfall2050RCP85,annualAccumilatedRainfall2080RCP45,annualAccumilatedRainfall2080RCP85,Year,ChlorophyllPercentage_100m,ChlorophyllPercentage_1000m
ESG_100119,Energy,"Oil, Gas & Consumable Fuels",Equinor ASA,Equinor Argentina Victoria Ocampo Office,Office,Office,Argentina,-34.6017825,-58.3641079,H,H,H,H,H,VH,,60.02403222,M,H,Oil and gas exploration surveys,0.004042476,810,0,0,1.104,1.089,0.041,0.165,,,,0,0,0,0,0,0,0,0,0,0,0,0,0,0,0,0,0,0,0,0,0,0,0,0,0,0,0,0,85.5,84.42,88.17,90,88.67,92.08,2023,17.18,17.43
ESG_100121,Energy,"Oil, Gas & Consumable Fuels",Equinor ASA,Equinor Storage Williston,Storage,Storage,United States of America,48.1415794,-103.850979,,,L,,L,,,32.88377623,,,Oil and gas storage,0.192243427,394,0,0,0,0,46.641,8.566,,,,0,0,0,0,0,0,0,0,0,0,0,0,0,0,0,0,0,1,0,2,14,18,14,13,10,13,16,9,39.92,34.83,38.33,34.17,35.83,38.83,2023,0.23,0.83
ESG_100125,Energy,"Oil, Gas & Consumable Fuels",Equinor ASA,Equinor Marketing And Trading Stamford,Office,Office,United States of America,41.0744128,-73.5531882,H,H,H,H,H,VH,,78.99846399,M,H,Oil and gas exploration surveys,0.153776862,588,0,0,0,0,14.485,1.136,,,,0,0,0,0,0,0,0,0,0,0,0,0,0,0,0,0,0,0,0,4,0,0,0,0,0,0,0,0,103.75,104,105.58,105.42,107.17,109.5,2023,0,0.03
ESG_100129,Energy,"Oil, Gas & Consumable Fuels",Equinor ASA,Equinor Office Caracas,Office,Office,Venezuela (Bolivarian Republic of),10.4986507,-66.8522569,,,,M,,,,63.48885258,,,Oil and gas services,0.012702589,1009,0,1,0,3.143,1.396,0,8,22,,0,0,0,0,0,0,0,0,0,0,0,0,0,0,0,0,0,0,0,0,0,0,0,0,0,0,0,0,76.17,76.83,77.75,80,78.42,79.17,2023,0,0.19
ESG_100134,Energy,"Oil, Gas & Consumable Fuels",Equinor ASA,Equinor Office London,Office,Office,United Kingdom of Great Britain and Northern Ireland,51.5190763,-0.181679,,,,M,,,,37.21804694,,,Oil and gas services,0.012307827,640,0,0,0,0,10.431,1.522,,,,0,0,0,0,0,0,0,0,0,0,0,0,0,0,0,0,0,0,0,0,0,0,0,0,0,0,0,0,57.17,56.75,55.42,54.67,55.08,54.33,2023,8.02,1.42
ESG_100135,Energy,"Oil, Gas & Consumable Fuels",Equinor ASA,Equinor Office Tanzania,Office,Office,"Tanzania, United Republic of",-6.744889,39.280335,,,,M,,,,9.944956927,,,Oil and gas services,0.006168646,2569,1,0,3.143,0,0,3.467,,,,,,,,,,0,0,0,0,0,0,0,0,7,13,9,36,19,55,0,0,0,0,0,0,0,0,85.92,84.17,83.92,87.25,85.33,83.5,2023,,
ESG_100138,Energy,"Oil, Gas & Consumable Fuels",Equinor ASA,Equinor Asia Pacific Office Singapore,Office,Office,Singapore,1.278489791,103.8516823,H,H,H,H,H,VH,,89.79377925,M,H,Oil and gas exploration surveys,0.030020451,2829,0,0,0,0,5.701,5.389,,,,0,0,0,0,0,0,0,0,0,0,0,0,0,0,0,10,4,56,14,84,0,0,0,0,0,0,0,0,172.42,186.75,180.33,164.5,182.58,173.75,2023,,
ESG_100141,Energy,Professional Services,Equinor ASA,Equinor Research Center Ranheim,Research Institute,Research Institute,Norway,63.4388664,10.478279,M,,H,M,H,H,,5.420334826,,,Infrastructure holdings,0.337885038,583,0,0,0,0,9.956,1.178,,,,0,0,0,0,0,0,0,0,0,0,0,0,0,0,0,0,0,0,0,0,0,0,1,0,0,1,0,0,80.92,80.58,83.58,83,82.25,87.33,2023,14.62,36.74
ESG_100152,Energy,"Oil, Gas & Consumable Fuels",Equinor ASA,Equinor Office Rotterdam,Office,Office,Netherlands,51.92226,4.468957,,,,M,,,,4.87555941,,,Oil and gas services,0.066608583,680,0,0,0,0,3.885,1.508,,,,0,0,0,0,0,0,0,0,0,0,0,0,0,0,0,0,0,0,0,0,0,0,0,0,0,0,0,0,71.25,71.92,72,69.83,70.58,72.08,2023,1.84,1.79
ESG_100158,Energy,"Oil, Gas & Consumable Fuels",Equinor ASA,Equinor Office Mexico,Office,Office,Mexico,19.4284975,-99.204629,H,H,H,H,H,VH,,8.459257436,M,H,Oil and gas exploration surveys,0.007012284,617,0,0,0,0,13.17,1.069,,,,0,0,0,0,0,0,0,0,0,0,0,0,0,0,0,0,0,0,0,0,0,0,0,0,0,0,0,0,64.25,63.67,62.25,66,63.08,68.33,2023,0,0.22
ESG_100161,Energy,"Oil, Gas & Consumable Fuels",Equinor ASA,Equinor Stavanger Headquarters,Office,Office,Norway,58.8924139,5.7182234,H,H,H,H,H,VH,,0.916852054,M,H,Oil and gas exploration surveys,0.461433188,507,0,0,0,0,3.147,1.466,,,,0.03,0.032,0.034,0.03,0.034,0.04,0,0,0,0,0,0,0,0,0,0,0,0,0,0,0,0,0,0,0,0,0,0,130,129.83,130.25,133.75,133.42,139.75,2023,0.14,1.42
ESG_100164,Energy,Metals & Mining,Tenaris SA,Tenaris Global Services Nigeria,Office,Office,Nigeria,6.4345162,3.4258144,H,H,L,H,L,H,,9.634691951,,,Vulcanisation,0.003393054,1097,0,0,0,0,88.097,18.672,,,,0,0,0,0,0,0,0,0,0,0,0,0,11,6,24,25,23,49,36,75,0,0,0,0,0,0,0,0,144.5,143.33,144.92,142.67,145.42,145.75,2023,0,9.11
ESG_100169,Energy,Metals & Mining,Tenaris SA,Tenaris Tamsa Poza Rica Pipe Supplier,Supplier,Pipe Supplier,Mexico,20.48815,-97.49807,,H,,H,,H,,4.251230967,,,Steel production,0.069853369,685,0,0,0,0,34.081,45.488,,,,0,0,0,0,0,0,0,0,0,0,0,0,1,2,5,11,8,28,7,42,0,0,0,0,0,0,0,0,95,98.58,96.33,101.25,97.5,101,2023,0,0.06
ESG_100171,Energy,"Oil, Gas & Consumable Fuels",Equinor ASA,Equinor Office Berlin,Office,Office,Germany,52.514084,13.3906479,H,H,H,H,H,VH,,33.14935284,M,H,Oil and gas exploration surveys,0.034713286,775,0,0,0,0,19.582,4.016,,,,0,0,0,0,0,0,0,0,0,0,0,0,0,0,0,0,0,0,0,0,0,0,0,0,0,0,0,0,52.75,52,52.42,52.25,54.58,54.58,2023,4.64,2.65
ESG_100174,Energy,"Oil, Gas & Consumable Fuels",Equinor ASA,Equinor Office Aberdeen,Office,Office,United Kingdom of Great Britain and Northern Ireland,57.151606,-2.2273603,,,,M,,,,93.29497011,,,Oil and gas services,0.045973114,523,0,0,0,0,7.107,1.941,,,,0,0,0,0,0,0,0,0,0,0,0,0,0,0,0,0,0,0,0,0,0,0,0,0,0,0,0,0,74.83,74.25,75.33,76.17,76.67,81.08,2023,0.96,0.04
ESG_100179,Energy,Metals & Mining,Tenaris SA,Tenaris Saudi Arabia Steel Pipe Plant,Plant,Steel Plant,Saudi Arabia,26.2821598,49.962953,,H,,H,,H,,92.43188707,,,Steel production,0.15730507,253,0,0,0,0,23.074,13.673,,,,0,0,0,0,0,0,0,0,0,0,0,0,45,47,49,48,49,54,50,61,0,0,0,0,0,0,0,0,7.25,7.58,6.83,6.67,7.33,6.33,2023,0,0.6
ESG_100182,Energy,Metals & Mining,Tenaris SA,Tenaris Industrial Steel Plant Bay City Texas,Plant,Steel Plant,United States of America,29.00097156,-95.89743385,,H,,H,,H,,17.72633596,,,Steel production,4.459809246,611,0,0,0,0,32.933,11.348,,,,0.416,0.388,0.452,0.358,0.358,0.426,0,0,0,0,0,0,6,11,15,18,18,23,13,31,0,0,0,0,0,0,0,0,90.33,95.67,92.71,94,93.58,84.04,2023,0.02,0.01
ESG_100183,Energy,"Oil, Gas & Consumable Fuels",Equinor ASA,Equinor Exploration Ltd Ireland,Office,Office,Ireland,53.3329337,-6.2636666,H,H,H,H,H,VH,,70.27830339,,H,Mining,0.041587901,499,0,0,0,0,3.32,3.333,,,,0,0,0,0,0,0,0,0,0,0,0,0,0,0,0,0,0,0,0,0,0,0,0,0,0,0,0,0,74.88,71.96,73.25,74.33,74.12,74.38,2023,0.51,0.45
ESG_100185,Energy,Metals & Mining,Tenaris SA,Tenaris Siderca Industrial Campana Argentina Steel Plant,Plant,Steel Plant,Argentina,-34.152824,-58.9769161,,H,,H,,H,,0.792055163,,,Steel production,3.506506189,532,0,0,0,0,8.73,6.852,,,,0.012,0.008,0.012,0.008,0.01,0.012,0,0,0,0,0,0,0,0,0,1,0,2,0,5,0,0,0,0,0,0,0,0,81.5,81.08,83.58,85.75,85.67,88.33,2023,10.14,14.14
ESG_100193,Energy,Metals & Mining,Tenaris SA,Tenaris Qingdao Industrial Plant China,Plant,Steel Plant,China,35.991068,120.136813,,H,,H,,H,,59.9364497,,,Steel production,0.31511717,415,1,0,3.143,0,0,169.118,7,14,,0,0,0,0,0,0,0,0,0,0,0,0,0,0,0,0,0,4,1,9,0,0,0,0,0,0,0,0,61.17,65.42,66.58,65.83,71.33,67.25,2023,3.21,1.29
ESG_100201,Energy,Metals & Mining,Tenaris SA,Tenaris Dalmine Industrial Steel Plant,Plant,Steel Plant,Italy,45.63962037,9.59965288,,H,,H,,H,,16.16529244,,,Steel production,3.184076802,864,0,0,0,0,27.027,6.615,,,,0,0,0,0,0,0,0,0,0,0,0,0,0,0,0,0,0,0,0,3,0,0,0,0,0,0,0,0,81.17,81.67,81.67,79.17,80,73.08,2023,1.23,0.33
ESG_100205,Energy,"Oil, Gas & Consumable Fuels",Equinor ASA,Equinor Office St Johns Canada,Office,Office,Canada,47.5594215,-52.7108251,,,,M,,,,0,,,Oil and gas services,0.032479778,350,0,0,0,0,1.153,20.004,,,,0,0,0,0,0,0,0,0,0,0,0,0,0,0,0,0,0,0,0,0,0,0,0,0,0,0,0,0,129.5,129.58,128.17,133.17,135.5,134.67,2023,4.12,6.35
ESG_100207,Energy,"Oil, Gas & Consumable Fuels",Equinor ASA,Equinor Office Calgary,Office,Office,Canada,51.0497715,-114.0682179,,,,M,,,,47.17609511,,,Oil and gas services,0.014610293,376,0,0,0,0,49.178,9.814,,,,1.066,1.08,1.6,1.084,1.04,1.308,0,0,0,0,0,0,0,0,0,0,0,0,0,0,11,13,8,8,7,9,10,4,41.17,33.75,40.08,34.17,35.5,38.58,2023,46.42,19.7
ESG_100211,Energy,Metals & Mining,Tenaris SA,Tenaris Houston Office,Office,Office,United States of America,29.7449163,-95.4580416,,H,,H,,H,,24.29463993,,,Steel production,0.021277428,689,0,0,0,0,39.858,2.265,,,,0,0,0,0,0,0,0,0,0,0,0,0,4,10,14,17,18,23,14,31,0,0,0,0,0,0,0,0,85.83,92.42,88.58,89.83,90.25,79.67,2023,0.34,0.69
ESG_100212,Energy,"Oil, Gas & Consumable Fuels",Equinor ASA,Equinor Office Rio De Janeiro,Office,Office,Brazil,-22.924096,-43.1731683,H,H,H,H,H,VH,,49.87742473,M,H,Oil and gas exploration surveys,0.007964576,1768,0,0,0,0.127,3.25,0.691,,,,,,,,,,0,0,0,0,0,0,0,0,0,0,0,4,0,13,0,0,0,0,0,0,0,0,95.67,105.92,96.5,103.83,105.33,93.5,2023,0,28.5
ESG_100216,Energy,Metals & Mining,Tenaris SA,Tenaris Bakersfield Threading Supplier,Supplier,Equipment Supplier,United States of America,35.3892775,-119.0839462,H,H,H,H,H,VH,,24.78283179,,H,Mining,0.058041951,444,0,0,0,0,38.274,7.033,,,,0,0,0,0,0,0,0,0,0,0,0,0,0,2,3,2,5,17,4,24,0,0,0,0,0,0,0,0,12.5,9.67,7.5,10,8.75,7.92,2023,6.83,2.89
ESG_100217,Energy,"Oil, Gas & Consumable Fuels",Equinor ASA,Equinor Office Baku,Office,Office,Azerbaijan,40.376095,49.858464,H,H,H,H,H,VH,,93.79962536,M,H,Oil and gas exploration surveys,0.005654688,492,0,0,0,0,9.202,43.788,,,,0.074,0.072,0.084,0.076,0.08,0.096,0,0,0,0,0,0,0,0,0,0,0,0,0,0,0,0,0,0,0,0,0,0,20.75,16.75,20.08,17.92,19.75,17,2023,4.23,20.87
ESG_100219,Energy,Metals & Mining,Tenaris SA,Tenaris Prudential Calgary Steel Plant,Plant,Steel Plant,Canada,50.9731502,-113.984499,,H,,H,,H,,54.54351189,,,Steel production,0.937135564,371,0,0,0,0,42.856,4.192,,,,0,0,0,0,0,0,0,0,0,0,0,0,0,0,0,0,0,0,0,0,11,12,8,7,6,10,10,4,40.92,33.58,40.08,33.83,35.33,38.5,2023,0.23,1.99
ESG_100220,Energy,Metals & Mining,Tenaris SA,Tenaris Midland Pipe Supplier,Supplier,Pipe Supplier,United States of America,32.0476378,-101.9712084,,H,,H,,H,,31.35695254,,,Steel production,0.353845061,463,0,0,0,0,152.584,16.419,,,,0,0,0,0,0,0,0,0,0,0,0,0,1,8,10,12,13,20,17,30,0,0,0,0,0,0,0,0,36,39.42,35.83,34.75,35.42,29.58,2023,0.2,0.09
ESG_100228,Energy,Metals & Mining,Tenaris SA,Tenaris Hydril Canada Steel Pipe Plant,Plant,Steel Plant,Canada,53.3494808,-113.5154912,,H,,H,,H,,13.53408826,,,Steel production,0.09246184,373,0,0,0,0,27.613,20.238,,,,0,0,0,0,0,0,0,0,0,0,0,0,0,0,0,0,0,0,0,0,17,19,13,15,11,15,15,7,42.67,39.33,41.58,39.5,39.75,44.17,2023,0,0.83
ESG_100235,Energy,Metals & Mining,Tenaris SA,Tenaris Garrett Oklahoma Pipe Storage,Storage,Pipe Storage,United States of America,35.1754661,-97.8760292,,H,,H,,H,,30.83345157,,,Steel production,0.596500778,530,0,0,0,0,74.637,16.004,,,,0,0,0,0,0,0,0,0,0,0,0,0,1,8,9,9,14,18,16,24,0,0,0,0,0,0,0,0,71.33,76.42,71.58,73.5,66.42,65.25,2023,0.32,0.29
ESG_100238,Energy,Metals & Mining,Tenaris SA,Tenaris Hickman Arkansas Steel Plant,Plant,Steel Plant,United States of America,35.93323383,-89.75828111,,H,,H,,H,,0.017774453,,,Steel production,1.545963188,666,0,0,0,0,75.119,3.615,,,,0.18,0.196,0.206,0.19,0.194,0.22,0,0,0,0,0,0,0,1,2,4,3,9,7,17,0,0,0,0,0,0,0,0,106.25,113,110.17,114,112.62,107.96,2023,1.41,1.29
ESG_100243,Energy,Metals & Mining,Tenaris SA,Tenaris Conroe Steel Plant,Plant,Steel Plant,United States of America,30.3163785,-95.4090832,,H,,H,,H,,46.20318758,,,Steel production,0.285980582,643,0,0,0,0,54.726,24.602,,,,0,0,0,0,0,0,0,0,0,0,0,0,3,9,14,16,20,23,14,29,0,0,0,0,0,0,0,0,93.83,101.25,96.58,97.92,99.33,87.92,2023,1.76,0.75
ESG_100250,Energy,Metals & Mining,Tenaris SA,Tenaris McCarty Threading Steel Plant,Plant,Steel Plant,United States of America,29.7808261,-95.2864038,,H,,H,,H,,23.90262507,,,Steel production,0.261351793,648,0,0,0,0,52.656,6.736,,,,0.242,0.256,0.276,0.252,0.26,0.256,0,0,0,0,0,0,5,10,15,17,19,24,15,31,0,0,0,0,0,0,0,0,91.08,97.75,93.75,95.17,95.67,85.08,2023,0.31,0.43
ESG_100255,Energy,Metals & Mining,Tenaris SA,Tenaris Confab Pipe Steel Plant,Plant,Steel Plant,Brazil,-22.9402496,-45.4120458,,H,,H,,H,,7.096758348,,,Steel production,1.128204317,1122,0,0,0,0,15.768,8.44,,,,0,0,0,0,0,0,0,0,0,0,0,0,0,0,0,0,0,0,0,1,0,0,0,0,0,0,0,0,93.92,98.29,92.21,94.88,99.54,88.29,2023,0.03,0.1
ESG_100259,Energy,Metals & Mining,Tenaris SA,Tenaris Algoma Tubes Steel Plant,Plant,Steel Plant,Canada,46.5258833,-84.367035,,H,,H,,H,,0.016338664,,,Steel production,16.13537515,550,0,0,0,0,20.925,5.249,,,,0.202,0.218,0.226,0.222,0.208,0.206,0,0,0,0,0,0,0,0,0,0,0,0,0,0,15,16,16,10,13,8,13,3,80.75,78.83,82.33,80.92,83.42,87.33,2023,6.78,26.51
ESG_100262,Energy,Metals & Mining,Tenaris SA,Tenaris Tubocaribe Bolivar Steel Plant,Plant,Steel Plant,Colombia,10.3703957,-75.46811375,,H,,H,,H,,14.80252251,,,Steel production,0.185279067,819,0,0,0,0,16.461,10.467,1,18,,0,0,0,0,0,0,0,0,0,0,0,0,2,2,3,18,7,57,21,92,0,0,0,0,0,0,0,0,82.58,78.33,85.08,83.42,84.17,82.67,2023,0,0.35
ESG_100267,Energy,Metals & Mining,Tenaris SA,Tenaris Tubocaribe Plant,Plant,Steel Plant,Colombia,10.36319565,-75.4723145,,H,,H,,H,,14.80887409,,,Steel production,0.23755461,813,0,0,0,0,15.24,10.653,1,18,,0,0,0,0,0,0,0,0,0,0,0,0,2,2,3,18,7,57,21,92,0,0,0,0,0,0,0,0,82.58,78.33,85.08,83.42,84.17,82.67,2023,3.39,0.3
ESG_100272,Energy,Metals & Mining,Tenaris SA,Tenaris Global Services Aberdeen Supplier,Supplier,Equipment Supplier,United Kingdom of Great Britain and Northern Ireland,57.11884492,-2.075110699,H,H,H,H,H,VH,,94.95721504,,H,Mining,0.056672186,698,0,0,0,0,16.815,1.002,,,,,,,,,,0,0,0,0,0,0,0,0,0,0,0,0,0,0,0,0,0,0,0,0,0,0,71.75,71.33,72.17,73.17,73.67,77.75,2023,3.84,2.82
ESG_100280,Energy,Metals & Mining,Tenaris SA,Tenaris Saudi Steel Pipes Plant,Plant,Steel Plant,Saudi Arabia,26.2519416,49.9809613,,H,,H,,H,,89.98414817,,,Steel production,0.203465544,252,0,0,0,0,25.229,12.426,,,,0,0,0,0,0,0,0,0,0,0,0,0,45,47,49,48,49,54,50,61,0,0,0,0,0,0,0,0,7.17,7.5,6.75,6.58,7.25,6.25,2023,0.7,0.32
ESG_100288,Energy,Metals & Mining,Tenaris SA,Tenaris Spij Indonesia Steel Plant,Plant,Steel Plant,Indonesia,-5.99391325,106.0208037,,H,,H,,H,,11.91749218,,,Steel production,0.414588841,920,0,0,0,0,16.187,14.995,,,,0,0,0,0,0,0,0,0,0,0,0,0,4,1,2,10,5,52,15,76,0,0,0,0,0,0,0,0,173.58,176.92,174.92,176.75,177,169.67,2023,0,0.34
ESG_100293,Energy,Metals & Mining,Tenaris SA,Tenaris Hydril Batam Steel Plant,Plant,Steel Plant,Indonesia,1.114380595,104.1393257,,H,,H,,H,,14.30268816,,,Steel production,0.030867031,643,1,0,3.095,0,0,12.491,,,,,,,,,,0,0,0,0,0,0,0,0,0,6,2,53,11,84,0,0,0,0,0,0,0,0,181.42,196.25,190.17,173.75,193.17,183.08,2023,,
ESG_100303,Energy,Metals & Mining,Tenaris SA,Tenaris Global Services Canada Office,Office,Office,Canada,51.0456726,-114.0733025,H,H,L,H,L,H,,47.37525241,,,Vulcanisation,0.021922304,376,0,0,0,0,49.448,9.297,,,,0,0,0,0,0,0,0,0,0,0,0,0,0,0,0,0,0,0,0,0,11,13,8,8,7,9,10,4,41.17,33.75,40.08,34.17,35.5,38.58,2023,35.03,17.59
ESG_100306,Energy,Metals & Mining,Tenaris SA,Tenaris Global Services Abu Dhabi Pipe Supplier,Supplier,Pipe Supplier,United Arab Emirates,24.278465,54.468966,,H,,H,,H,,87.35827789,,,Steel production,0.162832539,262,0,0,0,0,50.603,3.493,,,,0.002,0.006,0,0.016,0,0,0,0,0,0,0,0,45,50,51,50,50,58,53,64,0,0,0,0,0,0,0,0,6.67,6.67,6.67,6,6.33,6.08,2023,0,0.29
ESG_100309,Energy,Metals & Mining,Tenaris SA,Tenaris Kazakhstan Threaders LLP Pipe Supplier,Supplier,Pipe Supplier,Kazakhstan,43.6667922,51.2464993,,H,,H,,H,,42.33170148,,,Steel production,0.193960411,274,0,0,0,0,8.16,3.454,,,,0,0,0,0,0,0,0,0,0,0,0,0,0,1,1,5,2,7,3,15,0,0,0,0,0,0,0,0,12.92,11.75,13.21,12.5,13.42,12.75,2023,1.76,0.61
ESG_100314,Energy,Metals & Mining,Tenaris SA,Tenaris Dalmine SPA Steel Plant,Plant,Steel Plant,Italy,45.6484625,9.6261476,,H,,H,,H,,15.28289081,,,Steel production,0.028050327,861,0,0,0,0,26.077,6.107,,,,0,0,0,0,0,0,0,0,0,0,0,0,0,0,0,0,0,0,0,3,0,0,0,0,0,0,0,0,81.17,81.67,81.67,79.17,80,73.08,2023,2.32,0.61
ESG_100318,Energy,Metals & Mining,Tenaris SA,Tenaris Global Services Denmark,Plant,Steel Plant,Denmark,55.4654445,8.5098469,,H,,H,,H,,3.550807276,,,Steel production,0.301149286,591,0,0,0,0.355,1.221,0.142,,,,0,0,0,0,0,0,0,0,0,0,0,0,0,0,0,0,0,0,0,0,0,0,0,0,0,0,0,0,76.5,77.67,76.5,77.58,79.67,82,2023,0.34,1.04
ESG_100322,Energy,Metals & Mining,Tenaris SA,Tenaris Global Services Norway AS,Office,Office,Norway,58.89598913,5.69081609,H,H,H,H,H,VH,,0.895223792,,H,Mining,0.053395742,510,0,0,0,0,2.246,2.566,,,,0.03,0.032,0.034,0.03,0.034,0.04,0,0,0,0,0,0,0,0,0,0,0,0,0,0,0,0,0,0,0,0,0,0,130,129.83,130.25,133.75,133.42,139.75,2023,2.6,1.92
ESG_100324,Energy,Metals & Mining,Tenaris SA,Tenaris Grande Prairie Pipe Supplier,Supplier,Pipe Supplier,Canada,55.1687138,-119.1748657,,H,,H,,H,,2.55126253,,,Steel production,1.008961583,322,1,0,3.143,0,0,5.909,,,,0,0,0,0,0,0,0,0,0,0,0,0,0,0,0,0,0,0,0,0,17,21,15,17,13,13,17,10,43.54,42.46,44.67,46.04,44.58,47.79,2023,0.15,0.05
ESG_100329,Energy,Metals & Mining,Tenaris SA,Tenaris Coiled Tubes Downhole Steel Plant,Plant,Steel Plant,United States of America,29.8494741,-95.1889565,,H,,H,,H,,30.87617335,,,Steel production,0.298837995,661,0,0,0,0,59.445,6.251,,,,0.242,0.256,0.276,0.252,0.26,0.256,0,0,0,0,0,0,4,10,14,17,19,23,15,31,0,0,0,0,0,0,0,0,95.83,102.42,98.33,99.75,100.25,89.58,2023,0.23,0.43
ESG_100336,Energy,Metals & Mining,Tenaris SA,Tenaris Fittings Mexico Steel Plant,Plant,Steel Plant,Mexico,25.88293338,-100.220162,,H,,H,,H,,72.61596866,,,Steel production,0.150081837,550,0,0,0,0,30.576,16.821,1,28,,0,0,0,0,0,0,0,0,0,0,0,0,10,14,25,19,26,36,24,41,0,0,0,0,0,0,0,0,47.92,51.75,49.75,55.58,50.5,53.33,2023,0,1.81
ESG_100343,Energy,Metals & Mining,Tenaris SA,Tenaris Rods Campana Steel Plant,Plant,Steel Plant,Argentina,-34.16400418,-58.9798832,,H,,H,,H,,0.732978837,,,Steel production,0.128312436,532,0,0,0,0,9.285,6.449,,,,0,0,0,0,0,0,0,0,0,0,0,0,0,0,0,1,0,2,0,5,0,0,0,0,0,0,0,0,81.5,81.08,83.58,85.75,85.67,88.33,2023,0.25,1.52
ESG_100347,Energy,Metals & Mining,Tenaris SA,Tenaris Precision Tube Canada ULC Red Deer Wholesaler,Wholesaler,Wholesaler,Canada,52.3097772,-113.7974794,,H,,H,,H,,3.362794845,,,Steel production,0.036734613,368,0,0,0,0,54.472,28.563,,,,1.868,2.342,2.286,1.83,1.86,2.076,0,0,0,0,0,0,0,0,0,0,0,0,0,0,14,19,13,13,10,14,14,7,42.17,37.25,41,37.08,37.67,41.58,2023,1.97,6.1
ESG_100354,Energy,Metals & Mining,Tenaris SA,Tenaris West Virginia Pipe Supplier,Supplier,Pipe Supplier,United States of America,40.2161308,-80.6578177,,H,,H,,H,,4.344724758,,,Steel production,0.228501047,639,0,0,0,0,74.933,6.134,,,,0.116,0.126,0.122,0.124,0.114,0.13,0,0,0,0,0,0,0,0,0,0,0,0,1,1,1,0,1,0,1,1,1,0,91.58,94,94.75,96.92,95.17,95.5,2023,2.51,19.66
ESG_100359,Energy,Metals & Mining,Tenaris SA,Tenaris Koppel Tubulars Corporation Steel Plant,Plant,Steel Plant,United States of America,40.835884,-80.3192672,,H,,H,,H,,26.45736351,,,Steel production,1.445781631,611,0,0,0,0,71.591,1.941,,,,0.036,0.03,0.028,0.03,0.032,0.04,0,0,0,0,0,0,0,0,0,0,0,0,1,1,2,0,2,0,1,1,2,0,87.42,89.42,90.08,91.88,91.04,91.58,2023,0.27,3.57
ESG_100364,Energy,Metals & Mining,Tenaris SA,Tenaris Camanche Steel Plant,Plant,Steel Plant,United States of America,41.799616,-90.262431,,H,,H,,H,,0.12002402,,,Steel production,0.626235786,619,0,0,0,0,35.131,2.336,,,,0,0,0,0,0,0,0,0,0,0,0,0,0,0,0,0,0,3,2,4,4,2,4,2,2,2,6,0,84,81.17,85.33,82.67,84.67,86.75,2023,0,1.86
ESG_100366,Energy,Metals & Mining,Tenaris SA,Tmk Ipsco Tubulars Steel Plant,Plant,Steel Plant,United States of America,39.06310342,-84.49189207,,H,,H,,H,,3.930269125,,,Steel production,1.445942773,687,0,0,0,0,75.152,4.395,,,,0.898,0.982,0.93,0.878,0.92,1.078,0,0,0,0,0,0,0,0,0,0,0,1,1,5,0,0,2,0,0,0,0,0,94.33,95.08,97.33,101.42,97.17,97,2023,7.98,3.39
ESG_100368,Energy,Metals & Mining,Tenaris SA,Tenaris Westwego Threading Steel Pipe Supplier,Plant,Steel Plant,United States of America,29.906978,-90.13006,,H,,H,,H,,1.23765781,,,Steel production,0.069541755,587,0,0,0,0,3.581,2.348,,,,1.032,1.112,1.24,1.148,1.15,1.206,0.43,0.44,0.57,0.61,0.85,0.97,1,2,10,9,16,18,11,29,0,0,0,0,0,0,0,0,126.17,130.83,124.33,127.92,126.58,116,2023,0,27.26
ESG_100371,Energy,Metals & Mining,Tenaris SA,Tenaris Tubo Caribe Supplier,Supplier,Equipment Supplier,Colombia,7.016147,-73.812867,,H,,H,,H,,0.033532714,,,Steel production,0.019561143,852,0,0,0,0,14.276,4.003,,,,0,0,0,0,0,0,0,0,0,0,0,0,33,34,50,77,67,97,71,99,0,0,0,0,0,0,0,0,235.83,229.58,239.42,231.33,232.25,224.42,2023,,
ESG_100373,Energy,Metals & Mining,Tenaris SA,Tenaris Tubocaribe Villavicencio Pipe Supplier,Supplier,Pipe Supplier,Colombia,4.062771,-73.521431,,H,,H,,H,,2.870557327,,,Steel production,0.030300386,1028,0,0,0,0,17.089,8.975,,,,0,0,0,0,0,0,0,0,0,0,0,0,0,0,1,3,3,14,6,44,0,0,0,0,0,0,0,0,273.08,269.5,278,270.17,266.5,274.5,2023,0.26,0.2
ESG_100374,Energy,Metals & Mining,Tenaris SA,Tenaris Confab Brazil Office,Office,Office,Brazil,-22.4231349,-41.870263,H,H,H,H,H,VH,,26.25030476,,H,Mining,0.028559439,952,0,0,0,0,13.95,8.286,,,,0,0,0,0,0,0,0,0,0,0,0,0,0,0,0,0,0,0,0,6,0,0,0,0,0,0,0,0,73.5,85.58,74.42,84.33,81.58,74.58,2023,0.31,1.72
ESG_100377,Energy,Metals & Mining,Tenaris SA,Tenaris Confab Industrial Equipment Supplier,Supplier,Equipment Supplier,Brazil,-22.9141541,-45.351491,H,H,H,H,H,VH,,6.950204023,,H,Mining,0.530734778,1124,0,0,0,0,13.234,9.839,,,,0,0,0,0,0,0,0,0,0,0,0,0,0,0,0,0,0,0,0,1,0,0,0,0,0,0,0,0,93.25,97.75,91.33,94.58,99,87.75,2023,0,0.01
ESG_100384,Energy,Metals & Mining,Tenaris SA,Tenaris Songkhla Equipment Supplier,Supplier,Equipment Supplier,Thailand,7.258034234,100.540652,H,H,H,H,H,VH,,4.434781794,,H,Mining,0.073386945,2555,0,0,0,0,11.596,43.251,,,,,,,,,,0,0,0,0,0,0,8,10,14,35,22,64,39,83,0,0,0,0,0,0,0,0,154.92,161,162.92,163.58,155.08,159.83,2023,,
ESG_100390,Energy,Metals & Mining,Tenaris SA,Tenaris Siat SA Steel Plant,Plant,Steel Plant,Argentina,-33.267423,-60.289503,,H,,H,,H,,0.073396776,,,Steel production,0.191287108,494,0,0,0,0,18.457,4.502,,,,0,0,0,0,0,0,0,0,0,0,0,0,0,0,0,1,0,2,0,6,0,0,0,0,0,0,0,0,76,76,77.33,80.17,80.92,81.33,2023,0.09,3.95
ESG_100396,Energy,Metals & Mining,Tenaris SA,Tenaris Siat Buenos Aires Steel Plant,Plant,Steel Plant,Argentina,-34.6625084,-58.4099572,,H,,H,,H,,68.19881499,,,Steel production,0.409995574,477,0,0,0,0,7.048,6.739,,,,0.46,0.412,0.438,0.406,0.488,0.478,0,0,0,0,0,0,0,0,0,0,0,1,0,5,0,0,0,0,0,0,0,0,85.5,84.42,88.17,90,88.67,92.08,2023,3.49,3.79
ESG_100401,Energy,Metals & Mining,Tenaris SA,Tenaris Empresa Neuquen Steel Plant,Plant,Steel Plant,Argentina,-39.00697813,-68.42725946,,H,,H,,H,,0.494222346,,,Steel production,0.182767075,237,0,0,0,0,60.688,2.6,,,,0,0,0,0,0,0,0,0,0,0,0,0,0,0,0,0,0,0,0,1,0,0,0,0,0,0,0,0,8.33,7.25,9.17,7,8.75,9.33,2023,0.17,2.24
ESG_100407,Energy,Metals & Mining,Tenaris SA,Tenaris Siderca Comodoro Rivadavia,Supplier,Equipment Supplier,Argentina,-45.9049547,-67.5846768,,H,,H,,H,,6.082579828,,,Steel production,0.085241414,182,0,0,0,0,1.227,6.534,,,,0.16,0.156,0.152,0.176,0.172,0.144,0,0,0,0,0,0,0,0,0,0,0,0,0,0,0,0,0,0,0,0,0,0,13.92,13.83,14.83,12.04,11.79,11.46,2023,3.63,1.54
ESG_100415,Energy,Metals & Mining,Tenaris SA,Tenaris Conroe Sucker Rods Steel Plant,Plant,Steel Plant,United States of America,30.318633,-95.4163598,,H,,H,,H,,46.08194514,,,Steel production,0.062041991,643,0,0,0,0,54.465,24.982,,,,0,0,0,0,0,0,0,0,0,0,0,0,3,9,14,16,20,23,14,29,0,0,0,0,0,0,0,0,92.96,100.33,95.75,97.12,98.46,87.08,2023,0,0.63
ESG_100419,Energy,Metals & Mining,Tenaris SA,Tenaris Tamsa Equipment Supplier Mexico,Supplier,Industrial Equipment Supplier,Mexico,18.6563636,-91.7690662,H,H,H,H,H,VH,,0.868458517,,H,Mining,0.001839637,506,1,1,3.143,3.143,0,0,11,11,,,,,,,,0,0,0,0,0,0,0,0,0,0,0,0,0,0,0,0,0,0,0,0,0,0,126.08,121.75,126.58,130.33,127.67,137.75,2023,6.29,1.88
ESG_100421,Energy,Metals & Mining,Tenaris SA,Tenaris Connections BV Office,Office,Office,Netherlands,52.37763,4.91633,H,H,H,H,H,VH,,62.5285772,,H,Mining,0.001113979,852,0,0,0,0,4.219,3.961,,,,0.02,0.018,0.02,0.02,0.022,0.022,0.14,0.16,0.53,0.59,1.95,2.09,0,0,0,0,0,0,0,0,0,0,0,0,0,0,0,0,73.75,74.42,74.33,72,73.75,75,2023,3.68,30.54
ESG_100426,Energy,Metals & Mining,Tenaris SA,Tenaris Beijing Office,Office,Office,China,39.975766,116.472786,H,H,H,H,H,VH,,37.11531753,,H,Mining,0.004080098,433,0,0,0,0,63.637,272.189,,,,0,0,0,0,0,0,0,0,0,0,0,0,0,1,1,4,2,8,5,16,1,1,0,0,1,0,2,0,53.58,60,54.42,57.83,52.83,59.42,2023,2.87,0.39
ESG_100908,Energy,Metals & Mining,Tenaris SA,Tenaris Global Services S A Uruguay Office,Office,Office,Uruguay,-34.904944,-56.13623,H,H,H,H,H,VH,,22.34921183,,H,Mining,0.027534378,830,0,0,0,0,18.216,15.362,,,,0,0,0,0,0,0,0,0,0,0,0,0,0,0,0,0,0,0,0,1,0,0,0,0,0,0,0,0,84.83,81.75,85.83,87.08,87.17,90.75,2023,3.47,18.54
ESG_101222,Energy,"Oil, Gas & Consumable Fuels",Royal Dutch Shell PLC,ExxonMobil Chemicals Cowdenbeath,Plant,Gas Plant,United Kingdom of Great Britain and Northern Ireland,56.09578522,-3.311026201,,H,L,,L,H,,4.832027529,H,H,Oil and gas transportation,3.145035072,567,0,0,0,0,4.907,2.159,,,,0,0,0,0,0,0,0,0,0,0,0,0,0,0,0,0,0,0,0,0,0,0,0,0,0,0,0,0,67.75,65.33,67.17,67.17,69,71,2023,0.75,0.36
ESG_101273,Energy,Metals & Mining,Tenaris SA,Tenaris Global Services First New Cairo Office,Office,Office,Egypt,30.016871,31.421024,H,H,H,H,H,VH,,5.928249847,,H,Mining,0.006699051,495,0,0,0,0,65.881,3.091,,,,0,0,0,0,0,0,0,0,0,0,0,0,2,2,5,16,15,28,17,35,0,0,0,0,0,0,0,0,2,2.33,2.17,2.17,2.25,1.75,2023,0,0.07
ESG_102010,Energy,Metals & Mining,Tenaris SA,Tenaris Global Services Algeria Office,Office,Office,Algeria,36.746838,3.041059,H,H,H,H,H,VH,,67.05910596,,H,Mining,0.001087802,528,0,0,0,0,7.582,25.708,,,,0,0,0,0,0,0,0,0,0,0,0,0,0,0,0,0,0,0,0,0,0,0,0,0,0,0,0,0,50,48.92,49.33,47.25,47.5,42.92,2023,0,0.03
ESG_102014,Energy,Metals & Mining,Tenaris SA,Tenaris Global Services Angola Office,Office,Office,Angola,-8.922861,13.189277,H,H,H,H,H,VH,,85.79233987,,H,Mining,0.004279959,656,0,0,0,0,5.086,5.988,,,,0,0,0,0,0,0,0,0,0,0,0,0,0,0,0,0,0,5,0,44,0,0,0,0,0,0,0,0,49.75,35.92,38.92,43.58,42.08,40.67,2023,66.67,59.68
ESG_102018,Energy,Metals & Mining,Tenaris SA,Tenaris Global Services El Shorouk Cairo Office,Office,Office,Egypt,30.157757,31.600926,H,H,H,H,H,VH,,6.197714658,,H,Mining,0.002342629,490,0,0,0,0,70.265,21.624,,,,0,0,0,0,0,0,0,0,0,0,0,0,0,0,0,0,0,0,0,0,0,0,0,0,0,0,0,0,2,2.33,2.17,2.17,2.25,1.67,2023,0,0
ESG_102022,Energy,Metals & Mining,Tenaris SA,Amaja Tubular Services Gahana Office,Office,Office,Ghana,5.599086,-0.18006,H,H,H,H,H,VH,,5.354749335,,H,Mining,0.004417419,1097,0,0,0,0,11.009,2.995,,,,0,0,0,0,0,0,0,0,0,0,0,0,2,2,16,19,15,49,31,78,0,0,0,0,0,0,0,0,77.25,72.58,77.5,73.42,74.08,73.67,2023,0,0
ESG_102023,Energy,Metals & Mining,Tenaris SA,Tenaris Nigeria Office,Office,Office,Nigeria,6.44326,3.438176,H,H,H,H,H,VH,,9.699792747,,H,Mining,0.007384758,1113,0,0,0,0,89.464,17.485,,,,1.636,1.674,1.71,1.762,1.808,1.806,0,0,0,0,0,0,11,6,24,25,23,49,36,75,0,0,0,0,0,0,0,0,144.5,143.33,144.92,142.67,145.42,145.75,2023,0,5.95
ESG_102028,Energy,Metals & Mining,Tenaris SA,Tenaris Global Services Perth Office,Office,Office,Australia,-31.947582,115.844816,H,H,H,H,H,VH,,15.95747698,,H,Mining,0.001251394,565,1,0,3.143,0.238,0,0.701,,,,0,0,0,0,0,0,0,0,0,0,0,0,0,0,0,0,0,0,0,0,0,0,0,0,0,0,0,0,58.17,59.67,56.67,54.58,56.08,50.17,2023,5.34,4.97
ESG_102030,Energy,Metals & Mining,Tenaris SA,Tenaris Qingdao Steel Pipe Beijing Office,Office,Office,China,39.983811,116.48582,,H,,H,,H,,38.45165423,,,Steel production,0.063464311,433,0,0,0,0,62.287,272.037,,,,0,0,0,0,0,0,0,0,0,0,0,0,0,1,1,4,2,8,5,16,1,1,0,0,1,0,2,0,53.58,60,54.42,57.83,52.83,59.42,2023,0.21,0.3
ESG_102033,Energy,Metals & Mining,Tenaris SA,Tenaris Baogang Baotou Steel Pipes Office,Office,Office,China,40.649961,109.833415,,H,,H,,H,,59.5562727,,,Steel production,0.002270193,290,0,0,0,0,80.535,74.259,,,,0,0,0,0,0,0,0,0,0,0,0,0,0,0,0,0,0,0,0,0,0,0,0,0,0,0,0,0,25.42,30.96,28.92,29.92,27.08,31.71,2023,0,0.32
ESG_102037,Energy,Metals & Mining,Tenaris SA,PT Seamless Pipe Indonesia Jakarta Office,Office,Office,Indonesia,-6.226608,106.799475,,H,,H,,H,,83.81300783,,,Steel production,0.003011397,927,0,0,0,0,7.267,12.728,,,,0.138,0.124,0.148,0.148,0.158,0.216,0,0,0,0,0,0,0,0,0,0,0,0,0,0,0,0,0,0,0,0,0,0,159.92,164.25,161.25,162.75,162.25,157.58,2023,0.69,5.08
ESG_102049,Energy,Metals & Mining,Tenaris SA,Geneva Welded Tubes Steel Plant,Plant,Steel Plant,United States of America,40.537965,-97.597479,,H,,H,,H,,71.08210606,,,Steel production,0.054220391,449,0,0,0,0,104.265,6.084,,,,0,0,0,0,0,0,0,0,0,0,0,0,0,0,0,0,0,6,4,8,2,1,2,1,1,0,1,0,62.92,66.17,66.25,65.83,62.42,65.08,2023,2.49,0.18
ESG_102055,Energy,Metals & Mining,Tenaris SA,Tenaris Dalmine Costa Volpino Steel Plant,Plant,Steel Plant,Italy,45.828914,10.112399,,H,,H,,H,,1.987464204,,,Steel production,0.715545621,930,0,0,0,0,11.587,7.283,,,,0.284,0.302,0.354,0.338,0.338,0.31,0,0,0,0,0,0,0,0,0,0,0,0,0,0,0,0,0,0,0,0,0,0,74.67,75.17,75.33,73,73.58,67.42,2023,1.89,1.48
ESG_102056,Energy,Metals & Mining,Tenaris SA,Tenaris Dalmine Piombino Steel Plant,Plant,Steel Plant,Italy,42.962324,10.570267,,H,,H,,H,,26.31967127,,,Steel production,7.858835785,1190,0,0,0,0.614,1.828,0.493,,,,0.256,0.25,0.266,0.232,0.242,0.29,0.07,0.07,0.09,0.09,0.14,0.17,0,0,1,0,0,4,0,9,0,0,0,0,0,0,0,0,48.25,48.92,48.25,47.42,45.67,40,2023,7.44,22.6
ESG_102057,Energy,Metals & Mining,Tenaris SA,Tenaris Dalmine Seamless Tubes Steel Plant,Plant,Steel Plant,Italy,45.638806,9.613916,,H,,H,,H,,15.92585608,,,Steel production,0.484108859,860,0,0,0,0,27.533,7.058,,,,0,0,0,0,0,0,0,0,0,0,0,0,0,0,0,0,0,0,0,3,0,0,0,0,0,0,0,0,81.17,81.67,81.67,79.17,80,73.08,2023,0.23,0.22
ESG_102059,Energy,Metals & Mining,Tenaris SA,Tenaris Dalmine Arcore Steel Plant,Plant,Steel Plant,Italy,45.631351,9.341563,,H,,H,,H,,19.61452685,,,Steel production,0.543782372,846,0,0,0,0,26.625,2.646,,,,0,0,0,0,0,0,0,0,0,0,0,0,0,0,0,0,0,0,0,4,0,0,0,0,0,0,0,0,86.92,87,86.96,84.71,85.42,78.75,2023,13.81,1.55
ESG_102062,Energy,Metals & Mining,Tenaris SA,Tenaris Silcotub Campina Oil Field Equipment Supplier,Supplier,Supplier,Romania,45.122017,25.744108,,H,,H,,H,,31.98561589,,,Steel production,0.032373415,734,0,0,0,0,33.496,7.551,,,,0,0,0,0,0,0,0,0,0,0,0,0,0,0,0,0,0,0,0,0,1,0,0,0,0,0,0,0,45.5,50.08,48.33,48.67,49.42,45.25,2023,1.26,0.31
ESG_102066,Energy,Metals & Mining,Tenaris SA,Tenaris Edmonton Threading Steel Pipe Plant Sherwood Park,Plant,Steel Plant,Canada,53.587645,-113.287367,,H,,H,,H,,20.8956915,,,Steel production,0.546847855,369,0,0,0,0,24.354,12.313,,,,0,0,0,0,0,0,0,0,0,0,0,0,0,0,0,0,0,0,0,0,17,19,14,15,11,15,16,7,41.17,38.25,40,38.17,38.58,43.08,2023,2.81,1.29
ESG_102070,Energy,Metals & Mining,Tenaris SA,Tenaris Comalcalco Threading Steel Plant,Plant,Steel Plant,Mexico,18.214896,-93.22059,,H,,H,,H,,2.9827879,,,Steel production,0.012057178,734,0,0,0,0,11.689,25.525,14,10,,0.844,0.932,0.652,0.918,1.032,0.822,0,0,0,0,0,0,13,10,25,30,31,45,28,58,0,0,0,0,0,0,0,0,171.33,167.5,174.67,175.67,174.58,185.42,2023,0,0.41
ESG_102081,Energy,Metals & Mining,Tenaris SA,Tenaris Ambridge Seamless Tubes Steel Plant,Plant,Steel Plant,United States of America,40.603204,-80.229901,,H,,H,,H,,1.706597855,,,Steel production,0.374069038,656,0,0,0,0,80.191,5.359,,,,0.476,0.446,0.4,0.464,0.49,0.534,0,0,0,0,0,0,0,0,0,0,0,0,1,1,1,0,2,0,1,1,2,0,85.33,87.42,88.33,90.17,89.08,89.5,2023,3.9,15.84
ESG_102082,Energy,Metals & Mining,Tenaris SA,Tenaris Baytown Threading Steel Plant,Plant,Steel Plant,United States of America,29.719098,-94.931655,,H,,H,,H,,11.43905648,,,Steel production,0.37760551,630,0,0,0,0,40.056,5.227,,,,0.676,0.772,0.862,0.728,0.774,0.712,0,0,0,0,0,0,3,9,14,18,18,22,13,31,0,0,0,0,0,0,0,0,96.42,102.92,98.75,100.08,100.67,90,2023,3.64,7.23
ESG_102083,Energy,Metals & Mining,Tenaris SA,Tenaris Blytheville Welded Tubes Steel Plant,Plant,Steel Plant,United States of America,35.949285,-89.730888,,H,,H,,H,,0.017254234,,,Steel production,0.614323726,714,0,0,0,0,77.689,2.81,,,,1.284,1.418,1.484,1.37,1.424,1.63,0,0,0,0,0,0,0,1,2,4,2,9,6,16,0,0,0,0,0,0,0,0,106.58,113.25,110.33,114.25,112.83,108.42,2023,0.42,0.57
ESG_102084,Energy,Metals & Mining,Tenaris SA,Tenaris Brookfield Threading Steel Plant,Plant,Steel Plant,United States of America,41.227974,-80.572752,,H,,H,,H,,34.72728305,,,Steel production,0.125928704,626,0,0,0,0,85.95,5.451,,,,0,0,0,0,0,0,0,0,0,0,0,0,0,0,0,0,0,0,1,1,2,0,3,0,1,1,2,0,87.75,89.08,89.58,91.17,90.67,91.58,2023,0,0.03
ESG_102085,Energy,Metals & Mining,Tenaris SA,Tenaris Subsea Coiled Tubes Houston Steel Plant,Plant,Steel Plant,United States of America,29.836846,-95.512372,,H,,H,,H,,35.38339298,,,Steel production,0.044292678,654,0,0,0,0,30.163,5.793,,,,0,0,0,0,0,0,0,0,0,0,0,0,5,10,15,18,20,24,15,32,0,0,0,0,0,0,0,0,88.83,95.33,91.42,92.83,93.33,82.58,2023,0.25,0.33
ESG_102086,Energy,Metals & Mining,Tenaris SA,Tenaris Scrap Metal Dealer Esteban Echevrria,Scrap Metal Dealer,Scrap Metal Dealer,Argentina,-34.742929,-58.49294,M,H,M,H,M,H,L,79.72965472,,,Metal processing,0.02119866,464,0,0,0,0,18.827,18.541,,,,0.46,0.412,0.438,0.406,0.488,0.478,0,0,0,0,0,0,0,0,0,0,0,1,0,5,0,0,0,0,0,0,0,0,84.58,83.42,87.42,89.42,87.5,91,2023,2.39,5.48
ESG_102093,Energy,Metals & Mining,Tenaris SA,Tenaris Ecuador Pichincha Office,Office,Office,Ecuador,-0.474072,-78.565051,H,H,H,H,H,VH,,3.999156144,,H,Mining,0.069646062,589,0,0,0,0,7.719,7.058,,,,0,0,0,0,0,0,0,0,0,0,0,0,0,0,0,0,0,0,0,0,0,0,0,0,0,0,0,0,125.17,113.67,129.58,127.42,125.25,145.08,2023,,
ESG_102097,Energy,Metals & Mining,Tenaris SA,Tenaris NKK Tubes KK Kawasaki Office,Office,Office,Japan,35.511078,139.717821,,H,,H,,H,,87.15083509,,,Steel production,0.002655104,1665,0,0,0,0,3.92,2.826,7,25,,0.788,0.852,0.844,0.798,0.86,0.934,0,0,0,0,0,0,0,0,0,0,0,4,2,9,0,0,0,0,0,0,0,0,138.08,128.75,136.67,135.33,141.08,138.75,2023,1.94,5.7
ESG_102099,Energy,Metals & Mining,Tenaris SA,Tenaris Global Services Singapore Office,Office,Office,Singapore,1.273555,103.841333,H,H,L,H,L,H,,89.64978479,,,Vulcanisation,0.007248535,1047,0,0,0,0,5.958,4.194,,,,0,0,0,0,0,0,0,0,0,0,0,0,0,0,0,0,0,0,0,0,0,0,0,0,0,0,0,0,172.42,186.75,180.33,164.5,182.58,173.75,2023,,
ESG_102103,Energy,Metals & Mining,Tenaris SA,Tenaris Global Services Korea Office,Office,Office,"Korea, Republic of",37.537149,127.005462,H,H,L,H,L,H,,83.13080738,,,Vulcanisation,0.008583041,438,0,0,0.147,0.004,0.825,0.923,,,,0,0,0,0,0,0,0,0,0,0,0,0,0,0,0,0,0,0,0,0,0,0,0,0,0,0,0,0,117,117.92,116.58,117.83,119.25,119.58,2023,0.47,4.93
ESG_102108,Energy,Metals & Mining,Tenaris SA,Tenaris Global Services France Office,Office,Office,France,48.892919,2.28454,H,H,L,H,L,H,,6.479017715,,,Vulcanisation,0.000645656,753,0,0,0,0,26.88,6.469,,,,0,0,0,0,0,0,0,0,0,0,0,0,0,0,0,0,0,0,0,0,0,0,0,0,0,0,0,0,53,56,54.08,51.5,54.67,50.25,2023,0,2.58
ESG_102114,Energy,Metals & Mining,Tenaris SA,Tenaris Deutschland Munich Germany Office,Office,Office,Germany,48.097053,11.536394,H,H,H,H,H,VH,,12.82244396,,H,Mining,0.033225794,857,0,0,0,0.605,15.085,0.422,,,,0,0,0,0,0,0,0,0,0,0,0,0,0,0,0,0,0,0,0,1,0,0,0,0,0,0,0,0,81.33,83.17,81.58,81.33,82.42,79.08,2023,0.96,1.75
ESG_102117,Energy,Metals & Mining,Tenaris SA,Tenaris Luxembourg Office,Office,Office,Luxembourg,49.627859,6.163293,H,H,H,H,H,VH,,15.9729015,,H,Mining,0.021316431,730,0,0,0,0.055,6.244,0.747,,,,0,0,0,0,0,0,0,0,0,0,0,0,0,0,0,0,0,0,0,0,0,0,0,0,0,0,0,0,74.25,75.83,76.92,70.5,75.83,73.83,2023,0,0.12
ESG_102121,Energy,Metals & Mining,Tenaris SA,Tenaris Global Services Stavanger Norway Office,Office,Office,Norway,58.903721,5.702023,H,H,H,H,H,VH,,0.904457927,,H,Mining,0.020457726,511,0,0,0,0,1.922,1.778,,,,0.03,0.032,0.034,0.03,0.034,0.04,0,0,0,0,0,0,0,0,0,0,0,0,0,0,0,0,0,0,0,0,0,0,130,129.83,130.25,133.75,133.42,139.75,2023,0,1.17
ESG_102123,Energy,Metals & Mining,Tenaris SA,Talta Trading E Marketing Sociedade Unipessoal Office,Office,Office,Portugal,32.647732,-16.907273,H,H,H,H,H,VH,,0,,H,Mining,0.001777822,1017,0,0,0,0,5.85,1.729,,,,,,,,,,0,0,0,0,0,0,0,0,0,0,0,0,0,0,0,0,0,0,0,0,0,0,57,56.42,56.42,52.67,52.33,48.92,2023,0,31.4
ESG_102124,Energy,Metals & Mining,Tenaris SA,Tenaris Silcotub Romania Office,Office,Office,Romania,44.4653,26.087184,H,H,H,H,H,VH,,26.86903129,,H,Mining,0.005737109,714,0,0,0,0,21.927,7.132,,,,0,0,0,0,0,0,0,0,0,0,0,0,0,0,0,0,0,2,0,5,0,0,0,0,0,0,0,0,39.58,43.67,42.33,42.58,42.83,39.08,2023,0,7.28
ESG_102125,Energy,Metals & Mining,Tenaris SA,Tenaris Global Services Moscow Russia Office,Office,Office,Russian Federation,55.759891,37.607328,H,H,L,H,L,H,,59.21312293,,,Vulcanisation,0.00510047,604,0,0,0,0,58.82,4.25,,,,0,0,0,0,0,0,0,0,0,0,0,0,0,0,0,0,0,0,0,0,0,0,0,0,0,0,0,0,68.75,67.17,69.17,70,70.25,69.83,2023,9.47,13.42
ESG_102130,Energy,Metals & Mining,Tenaris SA,Tenaris Global Services Switzerland Office,Office,Office,Switzerland,46.007898,8.955537,H,H,H,H,H,VH,,5.70151765,,H,Mining,0.005588092,908,0,0,0,0,5.084,1.803,,,,0,0,0,0,0,0,0,0,0,0,0,0,0,0,0,0,0,0,0,0,0,0,0,0,0,0,0,0,111.17,112.08,111.25,109.25,110.17,104.08,2023,0,17.19
ESG_102131,Energy,Metals & Mining,Tenaris SA,Tenaris Investments Zug Switzerland Office,Office,Office,Switzerland,47.169463,8.5163,H,H,H,H,H,VH,,4.205683862,,H,Mining,0.013604711,831,0,0,0,0,12.26,1.992,,,,0,0,0,0,0,0,0,0,0,0,0,0,0,0,0,0,0,0,0,1,0,0,0,0,0,0,0,0,94.92,97.42,95.42,94,95.92,91.5,2023,0,24.77
ESG_102137,Energy,Metals & Mining,Tenaris SA,Tenaris Global Services Aberdeen Scotland Office,Office,Office,United Kingdom of Great Britain and Northern Ireland,57.148229,-2.096498,H,H,H,H,H,VH,,98.29899306,,H,Mining,0.003539752,686,0,0,0,0,15.011,2.712,,,,0,0,0,0,0,0,0,0,0,0,0,0,0,0,0,0,0,0,0,0,0,0,0,0,0,0,0,0,71.75,71.33,72.17,73.17,73.67,77.75,2023,12.44,7.09
ESG_102150,Energy,Metals & Mining,Tenaris SA,Tenaris Global Services Abu Dhabi Office,Office,Office,United Arab Emirates,24.483523,54.377182,H,H,L,H,L,H,,81.35859132,,,Vulcanisation,0.000532634,751,0,0,0,0,51.722,3.744,,,,0,0,0,0,0,0,0,0,0,0,0,0,0,0,0,0,0,0,0,0,0,0,0,0,0,0,0,0,6.58,6.58,6.5,5.83,6.25,6,2023,0,0.06
ESG_102153,Energy,Metals & Mining,Tenaris SA,Tenaris Global Services Dubai Office,Office,Office,United Arab Emirates,25.100079,55.168989,H,H,H,H,H,VH,,73.9374237,,H,Mining,0.004850053,282,0,0,0,0,17.302,17.302,,,,0.022,0.028,0.02,0.036,0.016,0.01,1.2,1.21,1.33,1.37,1.59,1.74,0,0,0,0,0,0,0,0,0,0,0,0,0,0,0,0,7.83,7.83,7.42,6.5,7.25,6.58,2023,1.18,0.32
ESG_102154,Energy,Metals & Mining,Tenaris SA,Tenaris Global Services Toronto Office,Office,Office,Canada,43.641686,-79.377902,H,H,H,H,H,VH,,0.891079277,,H,Mining,0.00482839,644,0,0,0,0,2.872,27.492,,,,0.126,0.142,0.148,0.15,0.146,0.164,0,0,0,0,0,0,0,0,0,0,0,0,0,1,3,2,3,0,3,0,4,0,69.42,70.67,69.75,68.75,71.67,75.17,2023,2.15,38.05
ESG_102158,Energy,Metals & Mining,Tenaris SA,Tenaris Tubos De Acero De Mexico Jalisco Office,Office,Office,Mexico,20.703814,-103.376706,,H,,H,,H,,36.50636563,,,Steel production,0.00301211,668,0,0,0,0,46.831,1.181,,,,0,0,0,0,0,0,0,0,0,0,0,0,0,0,0,0,0,0,0,0,0,0,0,0,0,0,0,0,83.92,86.75,78.92,92.92,80.67,106.92,2023,0,0.3
ESG_102159,Energy,Metals & Mining,Tenaris SA,Tenaris Tubos De Acero De Mexico D F Office,Office,Office,Mexico,18.656443,-91.769079,,H,,H,,H,,0.868335179,,,Steel production,0.001233854,494,1,1,3.143,3.143,0,0,11,11,,,,,,,,0,0,0,0,0,0,0,0,0,0,0,0,0,0,0,0,0,0,0,0,0,0,126.08,121.75,126.58,130.33,127.67,137.75,2023,7.14,1.87
ESG_102163,Energy,Metals & Mining,Tenaris SA,Tenaris Global Services Denver Office,Office,Office,United States of America,39.749597,-104.990962,H,H,H,H,H,VH,,15.56163943,,H,Mining,0.002040584,480,0,0,0,0,103.173,4.951,,,,0,0,0,0,0,0,0,0,0,0,0,0,0,0,0,0,0,0,0,0,0,0,0,0,0,0,0,0,39,35.67,34.42,37.5,35.92,36.25,2023,0.36,3.33
ESG_102166,Energy,Metals & Mining,Tenaris SA,Tenaris Global Services Oklahoma Office,Office,Office,United States of America,35.468569,-97.517326,H,H,L,H,L,H,,8.210393665,,,Vulcanisation,0.002719293,533,0,0,0,0.008,120.432,0.755,,,,0,0,0,0,0,0,0,0,0,0,0,0,0,0,0,0,0,0,0,0,0,0,0,0,0,0,0,0,71.33,77.08,72.17,74.08,67.33,66.08,2023,13.74,1.14
ESG_102171,Energy,Metals & Mining,Tenaris SA,Tenaris Global Services Pittsburgh Office,Office,Office,United States of America,40.428443,-80.125589,H,H,H,H,H,VH,,2.022011871,,H,Mining,0.031739109,657,0,0,0,0,90.179,6.169,,,,0,0,0,0,0,0,0,0,0,0,0,0,0,0,0,0,0,0,1,2,1,0,2,0,1,1,1,0,87.08,89.58,90.25,92.17,90.83,91.42,2023,0,0
ESG_102173,Energy,Metals & Mining,Tenaris SA,Tenaris Buenos Aires Argentina Office,Office,Office,Argentina,-34.595267,-58.371887,H,H,H,H,H,VH,,59.93492116,,H,Mining,0.001225964,809,0,0,0.117,0.053,0.586,0.795,,,,0,0,0,0,0,0,0,0,0,0,0,0,0,0,0,0,0,0,0,0,0,0,0,0,0,0,0,0,85.5,84.42,88.17,90,88.67,92.08,2023,0,16.06
ESG_102174,Energy,Metals & Mining,Tenaris SA,Tenaris Global Services De Bolivia Office,Office,Office,Bolivia (Plurinational State of),-17.759833,-63.200792,H,H,H,H,H,VH,,3.936760163,,H,Mining,0.012361525,998,0,1,0,3.143,30.989,0,,,,0,0,0,0,0,0,0,0,0,0,0,0,3,5,9,15,7,43,16,60,0,0,0,0,0,0,0,0,102.33,102.33,97.25,103.5,105.5,98.75,2023,1.28,0.65
ESG_102177,Energy,Metals & Mining,Tenaris SA,Tenaris Confab Industrial Reo De Janeiro Office,Office,Office,Brazil,-22.909236,-43.181909,,H,,H,,H,,51.13739109,,,Steel production,0.004551699,1321,0,0,0,0,4.241,1.73,,,,0,0,0,0,0,0,0,0,0,0,0,0,0,0,0,0,0,0,0,0,0,0,0,0,0,0,0,0,95.67,105.92,96.5,103.83,105.33,93.5,2023,0,0.28
ESG_102179,Energy,Metals & Mining,Tenaris SA,Tenaris Global Services Chile Las Condes Office,Office,Office,Chile,-33.405688,-70.574907,H,H,H,H,H,VH,,80.8841151,,H,Mining,0.002077303,201,0,0,0,0,13.229,13.229,,,,0,0,0,0,0,0,0,0,0,0,0,0,0,0,0,0,0,0,0,0,0,0,0,0,0,0,0,0,25.25,23.25,25.75,20.25,21.67,15.5,2023,0,0.59
ESG_102180,Energy,Metals & Mining,Tenaris SA,Tenaris Global Services Colombia Office,Office,Office,Colombia,4.692453,-74.034963,H,H,H,H,H,VH,,0.475050397,,H,Mining,0.001198494,853,0,0,0,0,5.178,1.222,,,,0,0,0,0,0,0,0,0,0,0,0,0,0,0,0,0,0,0,0,0,0,0,0,0,0,0,0,0,84.5,80,88.08,79.5,77,82.5,2023,0.82,0.23
ESG_102184,Energy,Metals & Mining,Tenaris SA,Tenaris Global Services Ecuador Office,Office,Office,Ecuador,-0.205832,-78.487588,H,H,H,H,H,VH,,5.197891718,,H,Mining,0.000482687,634,0,0,0,0,8.019,23.723,,,,0,0,0,0,0,0,0,0,0,0,0,0,0,0,0,0,0,0,0,0,0,0,0,0,0,0,0,0,113.58,101.75,118.83,114.92,112.83,133.75,2023,,
ESG_102187,Energy,Metals & Mining,Tenaris SA,Tenaris Global Services Peru Office,Office,Office,Peru,-12.092175,-77.026463,H,H,H,H,H,VH,,93.48851535,,H,Mining,0.011843928,278,0,0,0,0,9.845,8.925,,,,,,,,,,0,0,0,0,0,0,0,0,0,0,0,0,0,2,0,0,0,0,0,0,0,0,3.75,5.42,2.75,2.75,4.75,5.5,2023,0,0.55
ESG_102189,Energy,Metals & Mining,Tenaris SA,Tenaris Socominter Caracas Office,Office,Office,Venezuela (Bolivarian Republic of),10.484243,-66.851894,,H,,H,,H,,64.70135819,,,Steel production,0.006720537,1020,0,1,0,3.143,3.001,0,8,22,,0,0,0,0,0,0,0,0,0,0,0,0,0,0,0,0,0,0,0,0,0,0,0,0,0,0,0,0,76.17,76.83,77.75,80,78.42,79.17,2023,1.69,0.3
ESG_102193,Energy,Metals & Mining,Tenaris SA,Tenaris Huston R&D Center Office,Office,Office,United States of America,29.915449,-95.551916,H,H,L,H,L,H,,39.91431552,,,Vulcanisation,0.032949784,639,0,0,0,0,23.739,5.723,,,,0,0,0,0,0,0,0,0,0,0,0,0,5,10,15,18,20,24,15,32,0,0,0,0,0,0,0,0,89.29,96.04,92,93.38,94.08,83.21,2023,0.29,0.35
ESG_102198,Energy,Metals & Mining,Tenaris SA,Amaja Tubular Services Gahana Service Center,Service Center,Service Center,Ghana,4.90264,-1.92359,M,H,,H,M,H,L,2.376118017,H,H,Construction materials production,0.058702114,1011,0,0,0,0,9.128,10.482,,,,0,0,0,0,0,0,0,0,0,0,0,0,2,0,8,13,8,39,23,69,0,0,0,0,0,0,0,0,133.08,128.25,132.33,129.5,130.25,129.17,2023,0,0
ESG_102206,Energy,Metals & Mining,Tenaris SA,Tenaris Yulin Service Center,Service Center,Service Center,China,38.261894,109.500046,M,,H,,H,VH,,26.90794837,,,Polymerization,0.038174412,326,0,0,0,0,94.411,169.201,,,,0,0,0,0,0,0,0,0,0,0,0,0,0,0,0,0,0,0,0,3,12,7,6,6,8,4,7,2,33.21,41.46,38.58,41,38.04,47.33,2023,0,0.21
ESG_102209,Energy,Metals & Mining,Tenaris SA,Tenaris Bienfait Service Center,Service Center,Service Center,Canada,49.137733,-102.836552,H,H,H,H,H,VH,,32.34661335,,H,Mining,0.099374453,411,0,0,0,0,91.962,7.511,,,,0,0,0,0,0,0,0,0,0,0,0,0,0,0,0,0,0,0,0,1,19,24,18,19,15,18,20,13,44,38.33,42.5,38.83,40.75,44.08,2023,1.95,1.38
ESG_102221,Energy,Metals & Mining,Tenaris SA,Tenaris Freeport Yard,Storage,Pipe Storage,United States of America,28.9399,-95.346308,,H,,H,,H,,35.56397844,,,Steel production,0.095952073,1485,0,0,0,0,46.402,3.611,,,,0,0,0,0,0,0,0,0,0,0,0,0,4,9,14,17,18,21,12,30,0,0,0,0,0,0,0,0,102.08,107.5,104.33,105.83,105.17,95.83,2023,2.67,6.19
ESG_105576,Energy,Metals & Mining,Tenaris SA,Onne Tenaris Global Services Nigeria Office,Office,Office,Nigeria,4.7002456,7.1533506,H,H,L,H,L,H,,2.32842874,,,Vulcanisation,0.016401236,1046,0,0,0,0,65.265,30.036,,,,0.208,0.22,0.214,0.226,0.228,0.244,0,0,0,0,0,0,1,0,3,5,2,22,6,53,0,0,0,0,0,0,0,0,253.83,254.83,254.92,254.42,266.83,264.17,2023,0,6.27
ESG_105641,Energy,Metals & Mining,Tenaris SA,Tenaris Neuquen Service Center,Service Center,Service Center,Argentina,-38.9041759,-68.0832659,H,H,H,H,H,VH,,40.1981608,,H,Mining,0.196363313,243,0,0,0,0,90.82,12.179,,,,0,0,0,0,0,0,0,0,0,0,0,0,0,0,0,0,0,0,1,3,0,0,0,0,0,0,0,0,9.71,9.08,10.96,7.67,10.42,8.92,2023,4.61,2.48
ESG_105663,Energy,Metals & Mining,Tenaris SA,Tenaris Hammerfest Service Center,Service Center,Service Center,Norway,70.6345503,23.6627003,H,H,H,H,H,VH,,0.461239889,,H,Mining,0.076804911,297,0,0,0,0,31.355,10.509,,,,,,,,,,0.29,0.31,0.44,0.49,0.72,0.9,0,0,0,0,0,0,0,0,18,28,20,13,12,13,13,7,56.5,55.25,58.08,54.67,55.92,58.75,2023,23.17,50.89
ESG_105667,Energy,Metals & Mining,Tenaris SA,Tenaris Sorong Service Center,Service Center,Service Center,Indonesia,-0.96094785,131.2678075,H,H,H,H,H,VH,,0.549289311,,H,Mining,0.201809193,3087,0,0,0,0,21.151,7.446,,,,,,,,,,0,0,0,0,0,0,0,0,1,2,1,39,2,77,0,0,0,0,0,0,0,0,289,282.33,285.25,259.17,288.58,338.67,2023,38.17,58.64
ESG_105671,Energy,Metals & Mining,Tenaris SA,Tenaris Darwin Service Center,Service Center,Service Center,Australia,-12.4774606,130.9232998,H,H,H,H,H,VH,,1.453384205,,H,Mining,0.048152843,2100,0,0,0,0,10.636,3.32,5,10,,0,0,0,0,0,0,0,0,0,0,0,0,23,18,33,51,41,72,50,89,0,0,0,0,0,0,0,0,129.17,137.92,126.33,138.17,135.5,132.58,2023,1.95,27.48
ESG_105675,Energy,Metals & Mining,Tenaris SA,Tenaris Dampier Service Center,Service Center,Service Center,Australia,-20.750626,116.767602,H,H,H,H,H,VH,,12.92553774,,H,Mining,0.038646017,439,0,0,0,0,2.974,8.618,,,,0.024,0.028,0.036,0.032,0.028,0.03,0,0,0,0,0,0,45,44,44,49,44,54,49,68,0,0,0,0,0,0,0,0,19.46,15.96,21.46,17.25,17.04,16.21,2023,0,0
ESG_105692,Energy,Metals & Mining,Tenaris SA,Tenaris Tubos De Acero De Mexico Villahermosa Office,Office,Office,Mexico,17.9972669,-92.94193,,H,,H,,H,,3.089603103,,,Steel production,0.004813858,793,0,0,0,0.187,16.513,0.491,14,10,,0,0,0,0,0,0,0,0,0,0,0,0,15,12,29,31,32,50,30,60,0,0,0,0,0,0,0,0,175.75,171.58,179.67,179.75,179.25,190.5,2023,4.79,4.49
ESG_105704,Energy,Metals & Mining,Tenaris SA,Tenaris Global Services Doha Qatar Office,Office,Office,Qatar,25.3185017,51.5302871,H,H,H,H,H,VH,,85.64832472,,H,Mining,0.008281487,731,0,0,0,0,7.572,13.561,,,,,,,,,,0,0,0,0,0,0,47,49,51,51,50,58,53,63,0,0,0,0,0,0,0,0,7.17,7.5,6.75,6.08,7.33,6,2023,0.96,36.3
ESG_105706,Energy,Metals & Mining,Tenaris SA,Tenaris Saudi Arabia Manama Bahrain Office,Office,Office,Bahrain,26.239545,50.5811761,H,H,H,H,H,VH,,78.16357782,,H,Mining,0.041195129,670,0,0,0,0,4.269,2.843,,,,,,,,,,0,0,0,0,0,0,46,48,51,50,51,57,52,62,0,0,0,0,0,0,0,0,6.75,6.92,6.33,5.92,7,5.5,2023,0,13.16
ESG_105708,Energy,Metals & Mining,Tenaris SA,Tenaris Global Services Vietnam Office,Office,Office,Viet Nam,10.7745237,106.7058136,H,H,H,H,H,VH,,39.35515505,,H,Mining,0.001457802,910,0,0,0,0,20.966,12.527,,,,0,0,0,0,0,0,0,0,0,0,0,0,15,14,24,41,30,70,44,83,0,0,0,0,0,0,0,0,151.42,159.83,151.5,150.58,156.25,166.42,2023,0.81,17.01
ESG_105749,Energy,Metals & Mining,Tenaris SA,Tenaris Metalmacanica S A Villa Mercedes Office,Office,Office,Argentina,-33.6779516,-65.4698525,,H,,H,,H,,24.87972592,,,Steel production,0.000262773,323,0,0,0,0,34.964,39.789,,,,0,0,0,0,0,0,0,0,0,0,0,0,0,0,0,0,0,0,0,0,0,0,0,0,0,0,0,0,49.83,48.58,48.5,51.08,51.33,49.75,2023,2.65,0.85
ESG_105755,Energy,Metals & Mining,Tenaris SA,Tenaris Metalmacanica S A Sucker Rods Mill Villa Mercedes,Plant,Metal Processing Plant,Argentina,-33.715943,-65.466524,,H,,H,,H,,24.56256369,,,Steel production,0.162858734,323,0,0,0,0,35.061,43.267,,,,0,0,0,0,0,0,0,0,0,0,0,0,0,0,0,1,0,2,1,8,0,0,0,0,0,0,0,0,49.83,48.58,48.5,51.08,51.33,49.75,2023,0.34,1.83
ESG_105776,Energy,Metals & Mining,Tenaris SA,Tenaris Tamsa Ciudad de Mexico Office,Office,Office,Mexico,19.4296163,-99.2030155,,H,,H,,H,,8.399250771,,,Steel production,0.0011814,617,0,0,0,0,13.295,1.198,,,,0,0,0,0,0,0,0,0,0,0,0,0,0,0,0,0,0,0,0,0,0,0,0,0,0,0,0,0,64.25,63.67,62.25,66,63.08,68.33,2023,0,0.28
ESG_105800,Energy,Metals & Mining,Tenaris SA,Tenaris Port Aktau Office,Office,Office,Kazakhstan,43.6033995,51.2207434,H,H,H,H,H,VH,,38.43675674,,H,Mining,0.009365656,321,0,0,0,0,3.463,2.639,,,,,,,,,,0,0,0,0,0,0,0,0,0,0,0,0,0,0,0,0,0,0,0,0,0,0,13,11.75,13.25,12.5,13.42,12.75,2023,0,40.83
ESG_106053,Energy,"Oil, Gas & Consumable Fuels",TotalEnergies SE,S Oil Total Lubricants Seoul Office,Office,Office,"Korea, Republic of",37.5600414,126.9730029,,H,L,,L,H,,85.2935775,H,H,Oil and gas transportation,0.002166945,448,0,0,0,0,3.684,1.536,,,,0,0,0,0,0,0,0,0,0,0,0,0,0,0,0,0,0,2,0,8,2,1,0,0,0,0,1,0,115.75,116.58,115.08,116.42,117.83,118.17,2023,0,1.69
ESG_106295,Energy,"Oil, Gas & Consumable Fuels",Equinor ASA,Salah Southern Gas Fields,Plant,Gas Plant,Algeria,29.08985875,2.2130567,,H,L,,L,H,,0.63672755,H,H,Oil and gas transportation,2.155018367,185,0,0,0,0,423.524,155.125,,,,0,0,0,0,0,0,0,0,0,0,0,0,32,29,34,34,33,40,36,44,0,0,0,0,0,0,0,0,3.17,3.5,2.71,3.04,2.33,3.46,2023,0,0
ESG_106547,Energy,"Oil, Gas & Consumable Fuels",Royal Dutch Shell PLC,Raizen Itabuna Distribution Terminal,Terminal,Oil Terminal,Brazil,-14.826183,-39.321587,,H,L,,L,H,,3.852267975,H,H,Oil and gas transportation,0.082279384,890,0,0,0,0,23.102,10.779,,,,0,0.01,0.15,0.076,0,0.042,0,0,0,0,0,0,0,0,0,0,0,3,0,23,0,0,0,0,0,0,0,0,105.5,110.42,104.25,107.92,111.75,107.83,2023,0,0.43
ESG_107599,Energy,"Oil, Gas & Consumable Fuels",Equinor ASA,Equinor Fornebu Oslo Office,Office,Office,Norway,59.8960543,10.6300429,H,H,H,H,H,VH,,18.15446797,M,H,Oil and gas exploration surveys,0.166994372,766,0,0,0,0.022,24.233,0.211,,,,0.124,0.12,0.128,0.13,0.126,0.13,0,0,0,0,0,0,0,0,0,0,0,0,0,0,1,1,3,0,0,2,0,0,73.58,73,71.67,72.92,72,76.42,2023,0,9.35
ESG_107604,Energy,"Oil, Gas & Consumable Fuels",Equinor ASA,Equinor Bergen Office,Office,Office,Norway,60.2971828,5.2857981,,,,M,,,,0.812975533,,,Oil and gas services,0.305541893,483,0,0,0,0,77.028,4.766,,,,0.068,0.078,0.084,0.07,0.078,0.096,0,0,0,0,0,0,0,0,0,0,0,0,0,0,0,0,0,0,0,0,0,0,187.17,184.67,188,190.75,191,199.17,2023,1.33,2.98
ESG_107607,Energy,"Oil, Gas & Consumable Fuels",Equinor ASA,Equinor Fjord base Office,Office,Office,Norway,61.6122383,5.0763681,H,H,H,H,H,VH,,0.24935874,M,H,Oil and gas exploration surveys,0.091242639,560,0,0,0,0,86.692,5.449,,,,,,,,,,0.65,0.65,0.76,0.83,1.01,1.16,0,0,0,0,0,0,0,0,0,0,0,0,0,0,0,0,206.58,203.33,208.08,209.92,209.5,218.42,2023,24.65,59.95
ESG_107608,Energy,"Oil, Gas & Consumable Fuels",Equinor ASA,Equinor Harstad Office,Office,Office,Norway,68.7932287,16.5389107,,,,M,,,,0.210689868,,,Oil and gas services,0.041943901,362,0,0,0,0,36.983,2.97,,,,,,,,,,0,0,0,0,0,0,0,0,0,0,0,0,0,0,1,3,2,0,0,0,0,0,97.42,94.58,98.42,93.33,96.25,99.83,2023,10.22,25.09
ESG_107629,Energy,"Oil, Gas & Consumable Fuels",Equinor ASA,Equinor Office Kristiansund,Office,Office,Norway,63.1076686,7.7839273,,,,M,,,,1.256969051,,,Oil and gas services,0.139334514,471,0,0,0,0,13.854,1.304,,,,,,,,,,0,0,0,0,0,0,0,0,0,0,0,0,0,0,0,0,0,0,0,0,0,0,110.25,109.25,112.5,112.42,110.83,116.17,2023,1.63,34.12
ESG_107631,Energy,"Oil, Gas & Consumable Fuels",Equinor ASA,Tjeldbergodden Industrial Facility,Plant,Petroleum Products Manufacturer,Norway,63.4081752,8.6939615,H,H,H,H,H,VH,,0.387784375,M,H,Oil and gas exploration surveys,4.881572864,527,0,0,0,0,21.144,7.908,,,,0.016,0.018,0.018,0.016,0.016,0.02,0,0,0,0,0,0,0,0,0,0,0,0,0,0,0,0,0,0,0,0,0,0,113.67,113.42,116.42,116,114.75,119.33,2023,27.57,41.52
ESG_107632,Energy,"Oil, Gas & Consumable Fuels",Equinor ASA,Equinor Stjordal Office,Office,Office,Norway,63.4693733,10.9059523,,,,M,,,,5.354481748,,,Oil and gas services,0.275952074,565,0,0,1.106,0,0.1,1.275,,,,0.088,0.09,0.096,0.094,0.086,0.096,0,0,0,0,0,0,0,0,0,0,0,0,0,0,1,0,1,0,0,1,0,0,79.17,79.08,81.83,81,80.5,86,2023,23.88,24.24
ESG_107633,Energy,Professional Services,Equinor ASA,Equinor Research And Product Development,Research Institute,Research Institute,Norway,59.1196008,9.6343977,M,,H,M,H,H,,3.744696549,,,Infrastructure holdings,0.022109343,720,0,0,0,0,45.314,2.067,,,,0.124,0.12,0.128,0.13,0.126,0.13,0,0,0,0,0,0,0,0,0,0,0,0,0,0,1,0,1,0,0,1,0,0,72.83,72.42,70.67,73.5,72.42,76.25,2023,3.02,35.53
ESG_107634,Energy,"Oil, Gas & Consumable Fuels",Equinor ASA,Equinor Office Statoil Karsto,Office,Office,Norway,59.2795595,5.5235413,,,,M,,,,0.558769514,,,Oil and gas services,0.19027216,635,0,0,0,0,27.151,1.928,,,,,,,,,,0,0,0,0,0,0,0,0,0,0,0,0,0,0,0,0,0,0,0,0,0,0,142.75,141.67,142.83,146.08,146.42,152.92,2023,3.59,10.43
ESG_107652,Energy,"Oil, Gas & Consumable Fuels",TotalEnergies SE,GAPCO Tanzania Oil Refinery,Refinery,Oil Refinery,"Tanzania, United Republic of",-6.8345349,39.2808149,H,H,L,,L,VH,L,10.44445869,,,Oil and gas refining,0.311403877,1016,0,0,0.955,0,0.238,2.894,,,,0,0,0,0,0,0,0,0,0,0,0,0,1,0,7,13,8,36,20,54,0,0,0,0,0,0,0,0,96.58,94.83,94.58,98.25,96.42,94.25,2023,,
ESG_107682,Energy,"Oil, Gas & Consumable Fuels",Equinor ASA,Equinor Office Luanda,Office,Office,Angola,-8.9214115,13.1884279,,,,M,,,,85.65427718,,,Oil and gas services,0.000520577,656,0,0,0,0,4.889,5.87,,,,0,0,0,0,0,0,0,0,0,0,0,0,0,0,0,0,0,0,0,0,0,0,0,0,0,0,0,0,49.75,35.92,38.92,43.58,42.08,40.67,2023,92.23,63.17
ESG_107759,Energy,"Oil, Gas & Consumable Fuels",Equinor ASA,Equinor Argentina Cecilia Grierson Office,Office,Office,Argentina,-34.5987506,-58.3654548,H,H,H,H,H,VH,,59.87180321,M,H,Oil and gas exploration surveys,0.023433953,806,1,0,0.86,0.805,0,0.188,,,,,,,,,,0,0,0,0,0,0,0,0,0,0,0,0,0,0,0,0,0,0,0,0,0,0,85.5,84.42,88.17,90,88.67,92.08,2023,20.59,24.72
ESG_107766,Energy,"Oil, Gas & Consumable Fuels",Royal Dutch Shell PLC,LNG Canada Kitimat Dry Port,Terminal,Oil Terminal,Canada,54.02511083,-128.6830542,,H,L,,L,H,,0.007929168,H,H,Oil and gas transportation,13.54821541,315,0,0,0,0,95.042,11.341,,,,0.138,0.144,0.16,0.142,0.148,0.178,0,0,0,0,0,0,0,0,0,0,0,0,0,0,2,0,1,0,0,0,0,0,218.25,225.92,225.92,234.42,230,239.92,2023,7.14,9.16
ESG_107773,Energy,"Oil, Gas & Consumable Fuels",Equinor ASA,Equinor Office Mechelen,Office,Office,Belgium,51.0033073,4.4667282,,,,M,,,,31.70531724,,,Oil and gas services,0.015861416,706,0,0,0,0,3.042,1.513,,,,0,0,0,0,0,0,0,0,0,0,0,0,0,0,0,0,0,0,0,0,0,0,0,0,0,0,0,0,70,70.75,71.5,67.83,68.92,70.42,2023,0,0.53
ESG_107774,Energy,"Oil, Gas & Consumable Fuels",Royal Dutch Shell PLC,Pennsylvania Petrochemicals Plant,Plant,Petrochemicals Plant,United States of America,40.670699,-80.336138,,H,L,,L,H,,1.526786561,H,H,Oil and gas transportation,4.410050471,667,0,0,0,0,82.175,9.795,,,,0.192,0.17,0.198,0.174,0.17,0.234,0,0,0,0,0,0,0,0,0,0,0,0,1,1,1,0,2,0,1,1,2,0,85.88,87.83,88.65,90.56,89.44,89.9,2023,10.65,15.43
ESG_107777,Energy,"Oil, Gas & Consumable Fuels",Equinor ASA,Equinor Energy Office Bruxelles,Office,Office,Belgium,50.8450184,4.3895645,H,H,H,H,H,VH,,40.63481002,,H,Mining,0.007016506,711,0,0,0,0,16.39,2.572,,,,0,0,0,0,0,0,0,0,0,0,0,0,0,0,0,0,0,0,0,0,0,0,0,0,0,0,0,0,69.83,70.92,71.17,67.67,69,70.17,2023,0,1.78
ESG_107779,Energy,Independent Power and Renewable Electricity Producers,Equinor ASA,Apodi Complex Solar Photovoltaic Power Plant,Plant,Solar Farm,Brazil,-5.0378937,-37.7882537,,H,H,,H,VH,L,5.639325054,,VH,Hydropower production,4.424823345,568,0,0,0,0,146.052,21.961,,,,0,0,0,0,0,0,0,0,0,0,0,0,19,18,32,46,32,79,38,93,0,0,0,0,0,0,0,0,73.92,71.83,78.83,70.83,69.75,71.5,2023,0,0
ESG_107824,Energy,"Oil, Gas & Consumable Fuels",Royal Dutch Shell PLC,Geismar Chemical Manufacturing Plant,Plant,Chemical Plant,United States of America,30.18308,-91,H,H,H,H,H,VH,,0.582903714,M,H,Oil and gas exploration surveys,9.863251364,601,0,0,0,0,14.422,21.964,,,,0.096,0.108,0.126,0.11,0.112,0.122,0,0,0,0,0,0,1,2,10,10,15,18,10,29,0,0,0,0,0,0,0,0,123.67,128.33,122.54,124.75,124.17,113.38,2023,3.54,12.56
ESG_107830,Energy,"Oil, Gas & Consumable Fuels",Royal Dutch Shell PLC,UNICO Oil Refinery,Refinery,Oil Refinery,South Africa,-29.890472,31.036995,H,H,L,,L,VH,L,94.54302372,,,Oil and gas refining,1.40467117,2157,0,0,1.566,0,0.038,5.441,1,9,9,,,,,,,0,0,0,0,0,0,0,0,0,0,0,0,0,1,0,0,0,0,0,0,0,0,94,90.75,89.42,88.83,84,90.58,2023,15.24,29.89
ESG_107831,Energy,"Oil, Gas & Consumable Fuels",Royal Dutch Shell PLC,Shell Canada Calgary Office,Office,Office,Canada,51.0500631,-114.071282,,,,M,,,,47.07690556,,,Oil and gas services,0.005191388,376,0,0,0,0,49.377,9.657,,,,1.778,1.798,2.668,1.81,1.732,2.178,0,0,0,0,0,0,0,0,0,0,0,0,0,0,0,0,0,0,0,0,0,0,41.17,33.75,40.08,34.17,35.5,38.58,2023,30.73,19.75
ESG_107866,Energy,"Oil, Gas & Consumable Fuels",Equinor ASA,Equinor Office Beijing,Plant,Offshore Oil Field,China,39.912341,116.458472,H,H,H,H,H,VH,,30.31387299,M,H,Oil and gas exploration surveys,0.112852702,431,0,0,0,0,62.485,268.176,,,,0,0,0,0,0,0,0,0,0,0,0,0,0,1,1,4,2,8,5,16,1,1,0,0,1,0,2,0,55.08,61.92,56.42,59.58,54.5,61.25,2023,2.26,1.15
ESG_107867,Energy,"Oil, Gas & Consumable Fuels",Equinor ASA,Equinor Office Aarhus,Office,Office,Denmark,56.1494675,10.206957,,,,M,,,,4.195809123,,,Oil and gas services,0.036068916,632,0,0,0,0,13.909,1.547,,,,0,0,0,0,0,0,0,0,0,0,0,0,0,0,0,0,0,0,0,0,0,0,0,0,0,0,0,0,59.92,60.75,59.83,61.33,62.5,66.58,2023,0,8.44
ESG_107868,Energy,"Oil, Gas & Consumable Fuels",Royal Dutch Shell PLC,Shell Nederland Chemie BV Moerdijk Chemicals Manufacturing Plant,Plant,Chemical Plant,Netherlands,51.682577,4.566747,H,H,H,H,H,VH,,13.15725638,M,H,Oil and gas exploration surveys,8.940350805,849,0,0,0.229,0.239,0.735,0.735,,,,0,0,0,0,0,0,0.32,0.34,0.47,0.5,1.11,1.19,0,0,0,0,0,0,0,0,0,0,0,0,0,0,0,0,71.25,71.92,72.17,69.33,70.42,72.17,2023,13.12,27.83
ESG_107876,Energy,"Oil, Gas & Consumable Fuels",Royal Dutch Shell PLC,Shell South Africa Energy Bryanston Office,Office,Office,South Africa,-26.0420277,28.0217133,H,H,H,H,H,VH,,3.74430097,M,H,Oil and gas exploration surveys,0.00839141,887,0,0,0,0,11.115,8.189,,,,0,0,0,0,0,0,0,0,0,0,0,0,0,0,0,0,0,0,0,2,0,0,0,0,0,0,0,0,70.42,66.33,70.67,57,56.75,60.5,2023,0,0.28
ESG_107879,Energy,"Oil, Gas & Consumable Fuels",Royal Dutch Shell PLC,Shell Pasir Gudang Terminal,Terminal,Terminal,Malaysia,1.4456994,103.8997285,,H,L,,L,H,,86.28866348,H,H,Oil and gas transportation,0.069194243,1188,0,0,0,0,1.877,10.792,,,,0.086,0.108,0.128,0.136,0.122,0.172,0,0,0,0,0,0,0,0,0,10,4,56,14,84,0,0,0,0,0,0,0,0,189.17,203.67,196.67,181.08,199,190.58,2023,,
ESG_107880,Energy,"Oil, Gas & Consumable Fuels",Royal Dutch Shell PLC,Shell Singapore Office,Office,Office,Singapore,1.306204,103.791183,,,,M,,,,93.66856782,,,Oil and gas services,0.003308598,1063,0,0,0,0,3.918,4.348,,,,0,0,0,0,0,0,0,0,0,0,0,0,0,0,0,10,4,56,14,84,0,0,0,0,0,0,0,0,175.83,190,183.33,167.92,185.17,177.08,2023,,
ESG_107883,Energy,"Oil, Gas & Consumable Fuels",Royal Dutch Shell PLC,Shell Hong Kong Office,Office,Office,Hong Kong,22.312652,114.222383,,,,M,,,,14.61722565,,,Oil and gas services,0.002207888,785,0,0,0,0,2.383,1.309,14,11,,,,,,,,0,0,0,0,0,0,2,2,13,17,14,31,14,40,0,0,0,0,0,0,0,0,187.58,186.83,187.33,186,185.25,185,2023,0.69,18.08
ESG_107885,Energy,"Oil, Gas & Consumable Fuels",Royal Dutch Shell PLC,Shell Markets Middle East Dubai Office,Office,Office,United Arab Emirates,25.2221402,55.2888114,,,,M,,,,70.12651568,,,Oil and gas services,0.0028084,289,0,0,0,0,3.047,3.047,,,,0.032,0.046,0.042,0.052,0.028,0.02,0,0,0,0,0,0,0,0,0,0,0,0,0,0,0,0,0,0,0,0,0,0,8.08,8.08,7.58,6.58,7.42,6.67,2023,7.28,1.59
ESG_107887,Energy,"Oil, Gas & Consumable Fuels",Royal Dutch Shell PLC,Shell Oil Marketing Oil Refinery,Refinery,Oil Refinery,Oman,23.624239,58.523251,H,H,H,H,H,VH,,74.32016753,VH,H,Oil and gas drilling,0.183055862,1172,0,0,0,0,2.114,3.867,,,,0,0,0,0,0,0,0,0,0,0,0,0,38,42,43,46,45,56,48,59,0,0,0,0,0,0,0,0,7.25,7.92,6.83,7.67,7,6.5,2023,10.27,28.81
ESG_107888,Energy,"Oil, Gas & Consumable Fuels",Royal Dutch Shell PLC,Pt Shell Jakarta Office,Office,Office,Indonesia,-6.291522,106.803576,,H,L,,L,H,,87.94770636,H,H,Oil and gas transportation,0.008091827,934,0,0,0,0,14.488,12.831,,,,0,0,0,0,0,0,0,0,0,0,0,0,7,6,13,33,27,79,46,89,0,0,0,0,0,0,0,0,185.58,190.25,186.92,188.42,187.58,183.25,2023,0,0.96
ESG_107889,Energy,"Oil, Gas & Consumable Fuels",Royal Dutch Shell PLC,PT Shell Indonesia LOBP Plant,Plant,Chemical Plant,Indonesia,-6.091605,106.983027,H,H,H,H,H,VH,,72.73769114,M,H,Oil and gas exploration surveys,0.136359402,3024,0,0,0,0,8.758,23.823,,,,0.566,0.598,0.86,0.702,0.736,0.914,0.43,0.43,0.69,0.73,1.18,1.31,9,8,15,34,29,79,44,89,0,0,0,0,0,0,0,0,143.08,147.33,143.92,146.25,145.58,141.17,2023,11.67,21.92
ESG_107893,Energy,"Oil, Gas & Consumable Fuels",Royal Dutch Shell PLC,Shell Philippines Taguig City Office,Office,Office,Philippines,14.547146,121.050459,,,,M,,,,72.63281543,,,Oil and gas services,0.002709308,767,0,0,0,0,19.582,5.373,14,16,,0,0,0,0,0,0,0,0,0,0,0,0,0,0,0,0,0,0,0,0,0,0,0,0,0,0,0,0,174.67,163.17,179.42,174,170.58,173.17,2023,0,0.52
ESG_107897,Energy,"Oil, Gas & Consumable Fuels",Royal Dutch Shell PLC,Shell Thailand CNS LOBP Terminal,Terminal,Terminal,Thailand,13.711363,100.559172,,H,L,,L,H,,8.357929593,H,H,Oil and gas transportation,0.343668029,1159,1,0,2.619,0,0,29.268,,,,0.182,0.218,0.398,0.236,0.298,0.294,0,0,0,0,0,0,34,37,48,68,57,77,63,85,0,0,0,0,0,0,0,0,116.25,122.17,116.83,119,120.08,119.42,2023,22.14,16.53
ESG_107903,Energy,"Oil, Gas & Consumable Fuels",Royal Dutch Shell PLC,Shell Myanmar Energy Yangon Office,Office,Office,Myanmar,16.816051,96.146359,,H,L,,L,H,,21.39286321,H,H,Oil and gas transportation,0.00128769,938,0,0,0,0,17.56,24.284,,,,0,0,0,0,0,0,0,0,0,0,0,0,9,10,21,25,25,56,30,77,0,0,0,0,0,0,0,0,190.58,190.42,192.75,189.92,192.17,192.83,2023,0,0.04
ESG_107909,Energy,"Oil, Gas & Consumable Fuels",Royal Dutch Shell PLC,Societe des Petroles Shell France Office,Office,Office,France,48.892085,2.232544,H,H,H,H,H,VH,,5.261420818,M,H,Oil and gas exploration surveys,0.007424609,753,0,0,0,0,28.892,7.974,,,,0,0,0,0,0,0,0,0,0,0,0,0,0,0,0,0,0,0,0,0,0,0,0,0,0,0,0,0,52.92,55.92,53.92,51.42,54.5,50.17,2023,4.12,1.3
ESG_107912,Energy,"Oil, Gas & Consumable Fuels",Royal Dutch Shell PLC,Belgian Shell N V Belgium Office,Office,Office,Belgium,50.845892,4.358417,H,H,H,H,H,VH,,42.01925631,M,H,Oil and gas exploration surveys,0.049056744,709,0,0,0,0,17.765,3.512,,,,0,0,0,0,0,0,0,0,0,0,0,0,0,0,0,0,0,0,0,0,0,0,0,0,0,0,0,0,69.83,70.92,71.17,67.67,69,70.17,2023,8.39,2.17
ESG_107933,Energy,"Oil, Gas & Consumable Fuels",Royal Dutch Shell PLC,Shell Netherlands Head Office,Office,Office,Netherlands,52.093249,4.31184,,,,M,,,,21.22687937,,,Oil and gas services,0.054398337,722,0,0,0,0.023,1.467,0.891,,,,0,0,0,0,0,0,0,0,0,0,0,0,0,0,0,0,0,0,0,0,0,0,0,0,0,0,0,0,70.42,71.42,71.25,69.33,69.83,71.58,2023,1.24,0.29
ESG_107938,Energy,"Oil, Gas & Consumable Fuels",Royal Dutch Shell PLC,Shell Luxembourg Lubricants Plant,Plant,Lubricants Plant,Luxembourg,49.611565,6.064692,,H,L,,L,H,,15.07404609,H,H,Oil and gas transportation,0.105085397,719,0,0,0.311,0.34,0.462,0.397,,,,0,0,0,0,0,0,0,0,0,0,0,0,0,0,0,0,0,0,0,0,0,0,0,0,0,0,0,0,74.5,75.92,77,70.58,75.92,74,2023,0.31,0.41
ESG_107939,Energy,"Oil, Gas & Consumable Fuels",Royal Dutch Shell PLC,Shell Czech Republic Office,Office,Office,Czechia,50.0428295,14.4488973,,,,M,,,,2.650936666,,,Oil and gas services,0.013160809,813,0,0,0,0,26.481,1.229,,,,0,0,0,0,0,0,0,0,0,0,0,0,0,0,0,0,0,0,0,1,0,0,0,0,0,0,0,0,42.75,42.33,42.92,42.92,44.25,41.08,2023,0,0.08
ESG_107941,Energy,"Oil, Gas & Consumable Fuels",Royal Dutch Shell PLC,Shell Poland Krakow Office,Office,Office,Poland,50.0199982,19.8905,,,,M,,,,15.62494651,,,Oil and gas services,0.071263711,795,0,0,0,0.228,22.921,0.696,,,,0,0,0,0,0,0,0,0,0,0,0,0,0,0,0,0,0,0,0,0,1,1,1,0,0,0,0,0,58.75,61.42,61.25,61.08,59,58.67,2023,0,0.14
ESG_107945,Energy,"Oil, Gas & Consumable Fuels",Royal Dutch Shell PLC,Shell Lubricants Switzerland AG Office,Office,Office,Switzerland,46.948647,7.411118,,,,M,,,,6.58170203,,,Oil and gas services,0.014783947,814,0,0,0,0,11.553,2.054,,,,0,0,0,0,0,0,0,0,0,0,0,0,0,0,0,0,0,0,0,1,0,0,0,0,0,0,0,0,79.25,81.5,80,76.67,80.83,74.08,2023,0,0.53
ESG_107949,Energy,"Oil, Gas & Consumable Fuels",Royal Dutch Shell PLC,Casa Central Shell Argentina Office,Office,Office,Argentina,-34.605977,-58.377694,,,,M,,,,61.21826213,,,Oil and gas services,0.006655322,790,0,0,0,0,1.353,1.445,,,,0,0,0,0,0,0,0,0,0,0,0,0,0,0,0,0,0,0,0,0,0,0,0,0,0,0,0,0,85.5,84.42,88.17,90,88.67,92.08,2023,0.46,2.08
ESG_107954,Energy,"Oil, Gas & Consumable Fuels",Royal Dutch Shell PLC,Shell Solar Konzept Italia Srl Office,Office,Office,Italy,46.50106,11.3555,,H,L,,L,H,,8.45374647,H,H,Oil and gas transportation,0.00164717,966,0,0,0,0,26.168,5.979,,,,0,0,0,0,0,0,0,0,0,0,0,0,0,0,0,0,0,0,0,0,0,0,0,0,0,0,0,0,67.42,68.83,68.42,67,67.08,63.25,2023,0,1.86
ESG_107957,Energy,"Oil, Gas & Consumable Fuels",Royal Dutch Shell PLC,Shell Houston Office,Office,Office,United States of America,29.759186,-95.367654,,,,M,,,,24.59197752,,,Oil and gas services,0.003125867,684,0,0,0,0,46.471,3.698,,,,0.242,0.256,0.276,0.252,0.26,0.256,0,0,0,0,0,0,5,10,15,17,19,24,15,31,0,0,0,0,0,0,0,0,87.75,94.33,90.5,92,92.25,81.67,2023,0,0.78
ESG_107958,Energy,"Oil, Gas & Consumable Fuels",Royal Dutch Shell PLC,Shell Texas Office,Office,Office,United States of America,29.7567989,-95.3659068,,,,M,,,,24.73790813,,,Oil and gas services,0.003349592,684,0,0,0,0,46.773,3.651,,,,0,0,0,0,0,0,0,0,0,0,0,0,0,0,0,0,0,0,0,0,0,0,0,0,0,0,0,0,87.75,94.33,90.5,92,92.25,81.67,2023,0,0.88
ESG_107959,Energy,"Oil, Gas & Consumable Fuels",Royal Dutch Shell PLC,Shell UK Exploration & Production Aberdeen Office,Office,Office,United Kingdom of Great Britain and Northern Ireland,57.1215429,-2.0876836,H,H,H,H,H,VH,,95.49965514,,H,Mining,0.396162312,531,0,0,0,0.112,16.127,0.465,,,,0,0,0,0,0,0,0,0,0,0,0,0,0,0,0,0,0,0,0,0,0,0,0,0,0,0,0,0,71.75,71.33,72.17,73.17,73.67,77.75,2023,2.02,3.16
ESG_107961,Energy,"Oil, Gas & Consumable Fuels",Royal Dutch Shell PLC,Bacton Gas Terminal,Terminal,Terminal,United Kingdom of Great Britain and Northern Ireland,52.85655888,1.456660127,,H,L,,L,H,,30.66608103,H,H,Oil and gas transportation,1.998457558,813,0,0,0,1.678,8.974,0.348,,,,,,,,,,0,0,0,0,0,0,0,0,0,0,0,0,0,0,0,0,0,0,0,0,0,0,57.67,58.33,57.08,57,57.67,58.17,2023,2.46,30.75
ESG_107963,Energy,"Oil, Gas & Consumable Fuels",Royal Dutch Shell PLC,Shell London Office,Office,Office,United Kingdom of Great Britain and Northern Ireland,51.503932,-0.116957,,,,M,,,,34.39362397,,,Oil and gas services,0.002978109,646,0,0,0,0,8.02,3.27,,,,0.19,0.18,0.182,0.172,0.178,0.176,0,0,0,0,0,0,0,0,0,0,0,0,0,0,0,0,0,0,0,0,0,0,55.83,55.5,54.17,53.42,53.67,53.08,2023,0.54,18.18
ESG_107964,Energy,"Oil, Gas & Consumable Fuels",Royal Dutch Shell PLC,Shell UK Exploration & Production Peterhead Office,Office,Office,United Kingdom of Great Britain and Northern Ireland,57.508262,-1.7840244,H,H,H,H,H,VH,,3.975995132,,H,Mining,0.002434009,690,0,0,0,0,4.618,2.6,,,,,,,,,,0,0,0,0,0,0,0,0,0,0,0,0,0,0,0,0,0,0,0,0,0,0,76.5,76.5,77.08,78.42,78.75,83.42,2023,0,25.36
ESG_107966,Energy,"Oil, Gas & Consumable Fuels",Royal Dutch Shell PLC,Shell Hamburg Office,Office,Office,Germany,53.5173255,10.0061007,,,,M,,,,29.0164736,,,Oil and gas services,0.03495825,749,0,0,0,0.131,8.989,0.291,,,,0.298,0.318,0.378,0.324,0.358,0.34,0,0,0,0,0,0,0,0,0,0,0,0,0,0,0,0,0,0,0,0,0,0,66.83,66.75,66.58,65.5,68.17,70.83,2023,0.54,8.25
ESG_107968,Energy,"Oil, Gas & Consumable Fuels",Royal Dutch Shell PLC,Shell Milano Office,Office,Office,Italy,45.4823887,9.2013496,,,,M,,,,25.40671774,,,Oil and gas services,0.001094533,829,0,0,0,0,20.764,5.891,,,,0,0,0,0,0,0,0,0,0,0,0,0,0,0,0,0,0,0,0,0,0,0,0,0,0,0,0,0,82.17,82.33,82.17,79.75,80.67,73.58,2023,0,0.48
ESG_107971,Energy,"Oil, Gas & Consumable Fuels",Royal Dutch Shell PLC,Shell Italia E&P Roma Office,Office,Office,Italy,41.9040109,12.5027327,,,,M,,,,58.48733828,,,Oil and gas services,0.008953197,814,0,0,0,0,12.444,1.262,,,,0,0,0,0,0,0,0,0,0,0,0,0,0,0,0,0,0,3,0,10,0,0,0,0,0,0,0,0,61,62.25,61.25,60.67,58.33,53.58,2023,0,0.98
ESG_107972,Energy,"Oil, Gas & Consumable Fuels",Royal Dutch Shell PLC,Shell Espana Madrid Office,Office,Office,Spain,40.474659,-3.687583,,,,M,,,,0,,,Oil and gas services,0.016947483,810,0,0,0,0,3.868,3.718,,,,0,0,0,0,0,0,0,0,0,0,0,0,0,0,0,0,0,0,0,0,0,0,0,0,0,0,0,0,25.42,26.67,24.5,21.08,25.08,16.5,2023,0,1.15
ESG_107974,Energy,"Oil, Gas & Consumable Fuels",Royal Dutch Shell PLC,Shell Sundbyberg Office,Office,Office,Sweden,59.3631795,17.9584768,,,,M,,,,25.65044693,,,Oil and gas services,0.002320862,652,0,1,0,1.889,23.255,0,,,,0.288,0.288,0.33,0.306,0.29,0.366,0,0,0,0,0,0,0,0,0,0,0,0,0,0,0,0,0,0,0,0,0,0,53.58,51.5,53.42,53,54.42,56,2023,11.76,1.91
ESG_107976,Energy,"Oil, Gas & Consumable Fuels",Royal Dutch Shell PLC,Shell Dubendorf Office,Office,Office,Switzerland,47.3982699,8.6022986,,,,M,,,,2.926612828,,,Oil and gas services,0.035120975,813,0,0,0,0.012,12.701,0.687,,,,0,0,0,0,0,0,0,0,0,0,0,0,0,0,0,0,0,0,0,1,0,0,0,0,0,0,0,0,97.25,100,97.92,96.25,98.33,94.08,2023,0.27,0.1
ESG_107978,Energy,"Oil, Gas & Consumable Fuels",Royal Dutch Shell PLC,Shell International Bv Den Haag Office,Office,Office,Netherlands,52.0923335,4.3146172,,,,M,,,,21.09797037,,,Oil and gas services,0.013377241,722,0,0,0,0.148,1.603,0.67,,,,0,0,0,0,0,0,0,0,0,0,0,0,0,0,0,0,0,0,0,0,0,0,0,0,0,0,0,0,70.42,71.42,71.25,69.33,69.83,71.58,2023,0,0.25
ESG_107981,Energy,"Oil, Gas & Consumable Fuels",Royal Dutch Shell PLC,Shell International Exploration & Production Rijswijk Office,Office,Office,Netherlands,52.0355211,4.3262828,H,H,H,H,H,VH,,15.879922,M,H,Oil and gas exploration surveys,0.015736884,698,0,0,0,0.027,3.234,0.867,,,,0,0,0,0,0,0,0,0,0,0,0,0,0,0,0,0,0,0,0,0,0,0,0,0,0,0,0,0,70.42,71.42,71.25,69.33,69.83,71.58,2023,1.41,1.74
ESG_107982,Energy,"Oil, Gas & Consumable Fuels",Royal Dutch Shell PLC,Shell Downstream Services International Rotterdam Office,Office,Office,Netherlands,51.923795,4.476271,,,,M,,,,4.598947167,,,Oil and gas services,0.004291387,680,0,0,0,0,4.188,1.305,,,,0,0,0,0,0,0,0,0,0,0,0,0,0,0,0,0,0,0,0,0,0,0,0,0,0,0,0,0,71.25,71.92,72,69.83,70.58,72.08,2023,0,2.31
ESG_107985,Energy,"Oil, Gas & Consumable Fuels",Royal Dutch Shell PLC,Shell Energy Brisbane City Office,Office,Office,Australia,-27.469794,153.022789,,H,L,,L,H,,70.57535245,H,H,Oil and gas transportation,0.009518193,943,0,0,0,0,9.631,6.01,6,9,,0.204,0.202,0.178,0.23,0.208,0.196,0,0,0,0,0,0,0,0,0,0,0,0,0,1,0,0,0,0,0,0,0,0,87,78.58,80.83,74.42,81.75,70.5,2023,11.79,19.22
ESG_107988,Energy,"Oil, Gas & Consumable Fuels",Royal Dutch Shell PLC,Shell Local Suppliers Chinchilla,Supplier,Supplier,Australia,-26.739729,150.6236419,,,,M,,,,12.56889944,,,Oil and gas services,0.013319353,583,0,0,0,0,85.291,3.132,4,9,,1.168,1.172,1.11,1.098,1.058,0.994,0,0,0,0,0,0,0,1,0,0,2,5,1,10,0,0,0,0,0,0,0,0,47.83,41.58,41.75,37.83,45.5,36.75,2023,2.41,0.21
ESG_107990,Energy,"Oil, Gas & Consumable Fuels",Royal Dutch Shell PLC,Shell Energy Perth Office,Office,Office,Australia,-31.9498509,115.8550777,,,,M,,,,15.74844808,,,Oil and gas services,0.003297628,566,1,0,3.143,0,0,0.988,,,,0,0,0,0,0,0,0,0,0,0,0,0,0,0,0,0,0,0,0,0,0,0,0,0,0,0,0,0,58.17,59.67,56.67,54.58,56.08,50.17,2023,8.81,8.77
ESG_107993,Energy,"Oil, Gas & Consumable Fuels",Royal Dutch Shell PLC,Shell Ahmedabad Office,Office,Office,India,23.000508,72.499546,,,,M,,,,51.98020326,,,Oil and gas services,0.010088717,614,0,0,0,0,16.733,51.401,,,,0,0,0,0,0,0,0,0,0,0,0,0,37,34,42,51,50,58,58,77,0,0,0,0,0,0,0,0,59.06,58.31,59.89,56.36,58.97,55.33,2023,0,1.88
ESG_107994,Energy,"Oil, Gas & Consumable Fuels",Royal Dutch Shell PLC,Shell India Markets Bengaluru Office,Office,Office,India,12.9246707,77.6884645,,,,M,,,,10.7078645,,,Oil and gas services,0.03451042,798,0,0,0,0,13.969,168.268,,,,0,0,0,0,0,0,0,0,0,0,0,0,1,1,1,7,5,14,9,24,0,0,0,0,0,0,0,0,52.58,57.25,56.67,57.33,56,60.08,2023,7.27,1.05
ESG_107995,Energy,"Oil, Gas & Consumable Fuels",Royal Dutch Shell PLC,Shell India Markets Mahadeva Kodigehalli Office,Office,Office,India,13.1553485,77.7028187,,,,M,,,,0,,,Oil and gas services,0.029910048,785,0,0,0,0,7.481,188.81,,,,0,0,0,0,0,0,0,0,0,0,0,0,2,2,3,9,7,16,11,26,0,0,0,0,0,0,0,0,54.92,59.42,59.08,59.58,58.42,62.5,2023,0,0.93
ESG_108000,Energy,"Oil, Gas & Consumable Fuels",Royal Dutch Shell PLC,Shell India Markets Chennai Office,Office,Office,India,12.9656069,80.2463256,,,,M,,,,80.50975899,,,Oil and gas services,0.004557088,793,0,0,0,0,54.382,300.018,2,10,,0.19,0.226,0.25,0.224,0.318,0.466,0,0,0,0,0,0,42,38,42,45,46,59,50,66,0,0,0,0,0,0,0,0,91.83,95.08,100.58,94.92,98.08,98,2023,0,3.35
ESG_108003,Energy,"Oil, Gas & Consumable Fuels",Royal Dutch Shell PLC,Shell India Gurugram Office,Office,Office,India,28.451066,77.096264,,,,M,,,,51.99688416,,,Oil and gas services,0.004678964,628,0,0,0,0,9.887,106.378,,,,0,0,0,0,0,0,0,0,0,0,0,0,34,37,33,43,45,53,47,59,0,0,0,0,0,0,0,0,35,37.83,35.33,33,34.33,27.92,2023,0,0.03
ESG_108005,Energy,"Oil, Gas & Consumable Fuels",Royal Dutch Shell PLC,Shell Mumbai Office,Office,Office,India,19.0680947,72.867627,,,,M,,,,91.19677948,,,Oil and gas services,0.005067716,891,0,0,0,0,5.217,163.69,,,,0,0,0,0,0,0,0,0,0,0,0,0,0,0,0,0,0,0,0,0,0,0,0,0,0,0,0,0,215.33,220.33,215.33,221.42,217.58,214.58,2023,0,3.71
ESG_108009,Energy,"Oil, Gas & Consumable Fuels",Equinor ASA,Equinor Office Tokyo,Office,Office,Japan,35.678212,139.7668935,H,H,H,H,H,VH,,91.9712835,M,H,Oil and gas exploration surveys,0.015760642,536,0,0,0,0,4.701,0.998,5,25,,0,0,0,0,0,0,0,0,0,0,0,0,0,0,0,0,0,4,2,9,0,0,0,0,0,0,0,0,131.67,122.58,130.33,129.08,134.67,132.58,2023,6.54,10.41
ESG_108018,Energy,"Oil, Gas & Consumable Fuels",Royal Dutch Shell PLC,Shell Austria Wien Office,Office,Office,Austria,48.2329,16.413793,,,,M,,,,0.013664941,,,Oil and gas services,0.007338667,936,0,0,0,0,6.061,2.614,,,,0,0,0.034,0,0,0.044,0,0,0,0,0,0,0,0,0,0,0,0,0,1,0,0,0,0,0,0,0,0,51.83,52.25,53.67,50.67,50.92,49.08,2023,4.82,24.09
ESG_108019,Energy,"Oil, Gas & Consumable Fuels",Royal Dutch Shell PLC,Shell Baku Office,Office,Office,Azerbaijan,40.377045,49.8428453,,H,L,,L,H,,95.03642587,H,H,Oil and gas transportation,0.006875927,448,0,0,0,0,8.324,45.069,,,,0,0,0,0,0,0,0,0,0,0,0,0,0,0,0,0,0,0,0,0,0,0,0,0,0,0,0,0,20.75,16.75,20.08,17.92,19.75,17,2023,10.05,7.62
ESG_108020,Energy,"Oil, Gas & Consumable Fuels",Royal Dutch Shell PLC,Shell Sofia Office,Office,Office,Bulgaria,42.6919023,23.3527696,,,,M,,,,0.188728497,,,Oil and gas services,0.070928949,858,0,0,0,0,7.881,2.842,,,,0,0,0,0,0,0,0,0,0,0,0,0,0,0,0,0,0,0,0,0,1,0,0,0,0,0,0,0,41.17,45.08,45.25,41.17,42.17,35.33,2023,0,0.04
ESG_108022,Energy,"Oil, Gas & Consumable Fuels",Royal Dutch Shell PLC,Shell Bogota Office,Office,Office,Colombia,4.6742777,-74.0530062,,,,M,,,,0.47293095,,,Oil and gas services,0.000498345,864,0,0,0,0,4.644,1.345,,,,0,0,0,0,0,0,0,0,0,0,0,0,0,0,0,0,0,0,0,0,0,0,0,0,0,0,0,0,84.5,80,88.08,79.5,77,82.5,2023,0,0.25
ESG_108024,Energy,"Oil, Gas & Consumable Fuels",Royal Dutch Shell PLC,Shell San Jose Office,Office,Office,Costa Rica,9.941370324,-84.08626173,,H,L,,L,H,,14.00847111,H,H,Oil and gas transportation,0.002256085,726,0,0,0,0,7.327,7.069,3,14,,0,0,0,0,0,0,0,0,0,0,0,0,0,0,0,0,0,0,0,0,0,0,0,0,0,0,0,0,152.5,150.42,155.58,155.17,150.33,153.67,2023,,
ESG_108026,Energy,"Oil, Gas & Consumable Fuels",Royal Dutch Shell PLC,Shell Zagreb Office,Office,Office,Croatia,45.8063912,15.8638903,,,,M,,,,0.09853123,,,Oil and gas services,0.027463057,833,0,0,0,0,1.904,1.702,,,,0,0,0,0,0,0,0,0,0,0,0,0,0,0,0,0,0,0,0,1,0,0,0,0,0,0,0,0,78.25,79.92,80.17,76,74.67,70.25,2023,0,1.31
ESG_108029,Energy,"Oil, Gas & Consumable Fuels",Equinor ASA,Equinor Office Nigeria,Office,Office,Nigeria,6.4561329,3.4297629,,,,M,,,,9.532511339,,,Oil and gas services,0.001709677,1111,0,0,0,0,88.623,16.251,,,,0,0,0,0,0,0,0,0,0,0,0,0,11,6,24,25,23,49,36,75,0,0,0,0,0,0,0,0,144.5,143.33,144.92,142.67,145.42,145.75,2023,0,0
ESG_108030,Energy,"Oil, Gas & Consumable Fuels",Royal Dutch Shell PLC,Shell Naerum Office,Office,Office,Denmark,55.817183,12.531639,,,,M,,,,12.73046567,,,Oil and gas services,0.048221222,629,0,0,0,0.362,4.46,0.319,,,,0,0,0,0,0,0,0,0,0,0,0,0,0,0,0,0,0,0,0,0,0,0,0,0,0,0,0,0,61.17,61,60.83,62.17,62.5,67.33,2023,0.69,0.12
ESG_108032,Energy,"Oil, Gas & Consumable Fuels",Royal Dutch Shell PLC,Shell New Cairo Office,Office,Office,Egypt,30.017194,31.425464,,H,L,,L,H,,5.924549292,H,H,Oil and gas transportation,0.007412306,494,0,0,0,0,66.249,2.762,,,,0,0,0,0,0,0,0,0,0,0,0,0,2,2,5,16,15,28,17,35,0,0,0,0,0,0,0,0,2,2.33,2.17,2.17,2.25,1.75,2023,0,0.04
ESG_108037,Energy,"Oil, Gas & Consumable Fuels",Royal Dutch Shell PLC,Shell Helsinki Office,Office,Office,Finland,60.1998822,24.9292445,,,,M,,,,16.30113936,,,Oil and gas services,0.15986238,568,0,0,0,0.004,2.404,0.872,,,,0,0,0,0,0,0,0,0,0,0,0,0,0,0,0,0,0,0,0,0,2,2,4,0,0,2,1,1,62.83,60.75,62.5,63.08,63.58,67,2023,2.57,1.35
ESG_108038,Energy,"Oil, Gas & Consumable Fuels",Royal Dutch Shell PLC,Shell Ciudad de Guatemala Office,Office,Office,Guatemala,14.5892945,-90.5125398,,H,L,,L,H,,9.085465562,H,H,Oil and gas transportation,0.002792244,673,0,0,0,0,10.349,3.843,2,13,,0,0,0,0,0,0,0,0,0,0,0,0,0,0,0,0,0,0,0,0,0,0,0,0,0,0,0,0,109.33,107.17,116.67,116.42,113.75,131.92,2023,0,2.06
ESG_108039,Energy,"Oil, Gas & Consumable Fuels",Equinor ASA,Equinor Office Warsaw,Office,Office,Poland,52.2186814,21.0151117,,,,M,,,,2.106111564,,,Oil and gas services,0.01286193,720,0,0,0,0,8.611,2.143,,,,0,0,0,0,0,0,0,0,0,0,0,0,0,0,0,0,0,0,0,0,1,1,0,0,0,0,0,0,48.5,46.5,49.25,49,47.42,48,2023,0.38,0.97
ESG_108041,Energy,"Oil, Gas & Consumable Fuels",Royal Dutch Shell PLC,Shell Algiers Office,Office,Office,Algeria,36.7556141,3.026586,,,,M,,,,68.00194775,,,Oil and gas services,0.001189947,535,0,0,0,0,5.988,26.889,,,,0,0,0,0,0,0,0,0,0,0,0,0,0,0,0,0,0,0,0,0,0,0,0,0,0,0,0,0,52.25,51.25,51.67,49.42,49.67,44.83,2023,0,0.21
ESG_108042,Energy,"Oil, Gas & Consumable Fuels",Equinor ASA,Equinor Office Moskva,Office,Office,Russian Federation,55.7302942,37.6357916,,,,M,,,,59.58589651,,,Oil and gas services,0.015509473,604,0,0,0,0,55.58,1.52,,,,0,0,0,0,0,0,0,0,0,0,0,0,0,0,0,0,0,0,0,0,11,9,9,4,4,5,6,1,68.08,66.58,68.58,69.5,69.67,69.08,2023,6.75,6.99
ESG_108044,Energy,"Oil, Gas & Consumable Fuels",Royal Dutch Shell PLC,Shell Energy Hamburg Office,Office,Office,Germany,53.620858,10.0157653,,H,L,,L,H,,37.44161734,H,H,Oil and gas transportation,0.021765754,747,0,0,0,0.002,13.027,0.96,,,,0,0,0,0,0,0,0,0,0,0,0,0,0,0,0,0,0,0,0,0,0,0,0,0,0,0,0,0,68.92,68.67,68.58,67.58,70.33,72.83,2023,1.94,0.69
ESG_108046,Energy,"Oil, Gas & Consumable Fuels",Royal Dutch Shell PLC,Vivo Energy Botswana Office,Office,Office,Botswana,-24.6558017,25.9026947,,,,M,,,,10.44903018,,,Oil and gas services,0.013444917,736,0,0,0,0,4.115,24.32,,,,0,0,0,0,0,0,0,0,0,0,0,0,2,1,3,11,3,15,19,35,0,0,0,0,0,0,0,0,47.25,40.83,46.58,33.67,37,38.25,2023,0,1.8
ESG_108049,Energy,"Oil, Gas & Consumable Fuels",Royal Dutch Shell PLC,Shell Budapest Office,Office,Office,Hungary,47.4778363,19.0270327,,,,M,,,,0.788017828,,,Oil and gas services,0.060617127,869,0,0,0,0.192,26.424,0.552,,,,0,0,0,0,0,0,0,0,0,0,0,0,0,0,0,0,0,0,0,1,0,0,0,0,0,0,0,0,44.5,47.67,47.17,45.5,44,41.67,2023,0.64,0.3
ESG_108053,Energy,"Oil, Gas & Consumable Fuels",Royal Dutch Shell PLC,Basrah Gas Plant Iraq,Plant,Gas Plant,Iraq,30.267778,47.730212,,H,L,,L,H,,62.15476432,H,H,Oil and gas transportation,2.5550967,333,0,0,0,0,7.422,7.422,,,,0,0,0,0,0,0,0,0,0,0,0,0,40,42,46,44,46,50,45,54,0,0,0,0,0,0,0,0,13.08,11.67,12.25,9.83,11,10.25,2023,1.22,0.3
ESG_108056,Energy,"Oil, Gas & Consumable Fuels",Royal Dutch Shell PLC,Shell Japan Office,Office,Office,Japan,35.6780328,139.7669527,,,,M,,,,91.89761006,,,Oil and gas services,0.003396486,536,0,0,0,0,4.732,0.995,5,25,,0,0,0,0,0,0,0,0,0,0,0,0,0,0,0,0,0,4,2,9,0,0,0,0,0,0,0,0,131.67,122.58,130.33,129.08,134.67,132.58,2023,10.06,10.64
ESG_108058,Energy,"Oil, Gas & Consumable Fuels",Royal Dutch Shell PLC,Jordan Oil Shale Company B V Amman Office,Office,Office,Jordan,31.9461445,35.86035,,H,L,,L,H,,50.87343785,H,H,Oil and gas transportation,0.003615798,363,0,0,0,0,6.494,26.249,,,,0,0,0,0,0,0,0,0,0,0,0,0,0,0,0,0,0,0,0,0,0,0,0,0,0,0,0,0,32.25,33.08,32.67,31.92,33.5,29.42,2023,0,0.05
ESG_108060,Energy,"Oil, Gas & Consumable Fuels",Royal Dutch Shell PLC,Shell Nur Sultan Office,Office,Office,Kazakhstan,51.15272,71.425438,,,,M,,,,66.91870694,,,Oil and gas services,0.129945502,308,0,0,0,0,60.126,93.937,,,,0.288,0.292,0.392,0.318,0.286,0.208,0,0,0,0,0,0,0,0,0,0,0,0,0,1,31,26,26,27,32,23,24,16,32.33,30.42,32.75,30.92,33.08,31.58,2023,12.61,9.61
ESG_108065,Energy,"Oil, Gas & Consumable Fuels",Royal Dutch Shell PLC,Shell Salhiya Office,Office,Office,Kuwait,29.3636937,47.9662443,,,,M,,,,74.76119718,,,Oil and gas services,0.000905499,763,0,0,0,0,5.744,8.873,,,,,,,,,,0,0,0,0,0,0,0,0,0,0,0,0,0,0,0,0,0,0,0,0,0,0,10,8.83,9.33,7.33,8.25,7.92,2023,0,6.14
ESG_108070,Energy,"Oil, Gas & Consumable Fuels",Royal Dutch Shell PLC,Shell Kuala Lumpur Office,Office,Office,Malaysia,3.1308376,101.6845925,,,,M,,,,36.69403278,,,Oil and gas services,0.002192644,1318,0,0,0,0,8.455,2.76,,,1,0,0,0,0,0,0,0,0,0,0,0,0,0,0,0,0,0,0,0,0,0,0,0,0,0,0,0,0,200.58,209.58,198.58,203.67,200.58,211.08,2023,,
ESG_108071,Energy,"Oil, Gas & Consumable Fuels",Royal Dutch Shell PLC,Bagan Luar Shell Terminal,Terminal,Terminal,Malaysia,5.396805,100.3654592,,H,L,,L,H,,32.14333312,H,H,Oil and gas transportation,0.097152754,2955,0,0,0,0,8.886,13.496,,,,,,,,,,0.15,0.14,1.92,1.96,4.68,4.8,1,4,5,23,10,62,25,83,0,0,0,0,0,0,0,0,226.58,230.83,232.5,229.83,227.33,232.17,2023,42.36,59.49
ESG_108079,Energy,"Oil, Gas & Consumable Fuels",Royal Dutch Shell PLC,Shell Malaysia Trading Sdn Bhd KVDT EX Gate Operations Dengkil,Terminal,Terminal,Malaysia,2.953351,101.662484,,H,L,,L,H,,39.89615848,H,H,Oil and gas transportation,0.321686958,1233,0,0,0,0,18.437,4.533,,,,0,0,0,0,0,0,0,0,0,0,0,0,0,0,0,3,0,46,7,78,0,0,0,0,0,0,0,0,187.75,196.67,185.58,190.67,187.75,198.5,2023,,
ESG_108080,Energy,"Oil, Gas & Consumable Fuels",Royal Dutch Shell PLC,Sabah Shell Petroleum Kota Kinabalu Office,Office,Office,Malaysia,5.977268,116.074765,,H,L,,L,H,,1.141291517,H,H,Oil and gas transportation,0.008799641,3081,0,0,0,0,15.004,1.257,,,,,,,,,,0,0,0,0,0,0,0,0,0,0,0,17,0,56,0,0,0,0,0,0,0,0,227.92,224,214,213.08,219.08,259.33,2023,0.52,18.61
ESG_108081,Energy,"Oil, Gas & Consumable Fuels",Royal Dutch Shell PLC,Shell Business Service Centre Selangor,Service Center,Service Center,Malaysia,2.927348,101.654278,,,,M,,,,38.34422834,,,Oil and gas services,0.021943938,1223,0,0,0,0,21.609,6.577,,,,0,0,0,0,0,0,0,0,0,0,0,0,0,0,0,3,0,46,7,78,0,0,0,0,0,0,0,0,187.75,196.67,185.58,190.67,187.75,198.5,2023,,
ESG_108082,Energy,"Oil, Gas & Consumable Fuels",Royal Dutch Shell PLC,Shell Sepang Office,Office,Office,Malaysia,2.7285799,101.7231099,,,,M,,,,64.53982486,,,Oil and gas services,0.007170751,1179,0,0,0,0,31.875,14.609,,,,0,0,0,0,0,0,0,0,0,0,0,0,0,0,0,0,0,0,0,0,0,0,0,0,0,0,0,0,182.42,192,180.75,184.42,182.83,192.67,2023,,
ESG_108083,Energy,"Oil, Gas & Consumable Fuels",Royal Dutch Shell PLC,Shell Ciudad de Mexico Office,Office,Office,Mexico,19.429672,-99.21114,,H,L,,L,H,,8.436218047,H,H,Oil and gas transportation,0.002711107,612,0,0,0,0.043,13.084,0.6,,,,0,0,0,0,0,0,0,0,0,0,0,0,0,0,0,0,0,0,0,0,0,0,0,0,0,0,0,0,64.25,63.67,62.25,66,63.08,68.33,2023,0,0.18
ESG_108084,Energy,"Oil, Gas & Consumable Fuels",Royal Dutch Shell PLC,Vivo Energy Windhoek Office,Office,Office,Namibia,-22.5909834,17.0810012,,,,M,,,,0,,,Oil and gas services,0.006339764,602,0,0,0,0,140.136,10.837,,,,0,0,0,0,0,0,0,0,0,0,0,0,0,0,0,0,0,3,0,16,0,0,0,0,0,0,0,0,28.58,29.67,24,27.42,24.33,19.17,2023,6.74,5.66
ESG_108085,Energy,"Oil, Gas & Consumable Fuels",Royal Dutch Shell PLC,Shell Namibia Windhoek Office,Office,Office,Namibia,-22.5771308,17.0860166,,,,M,,,,0,,,Oil and gas services,0.019250465,623,0,0,0,0,140.84,10.797,,,,0,0,0,0,0,0,0,0,0,0,0,0,0,0,0,0,0,3,0,16,0,0,0,0,0,0,0,0,29.75,30.92,25.17,28.42,25.67,20.42,2023,15.44,5.03
ESG_108086,Energy,"Oil, Gas & Consumable Fuels",Royal Dutch Shell PLC,Shell Managua Office,Office,Office,Nicaragua,12.1228515,-86.2629908,,,,M,,,,2.076313406,,,Oil and gas services,0.010690442,653,0,0,0,0,9.812,1.721,5,15,,0,0,0,0,0,0,0,0,0,0,0,0,1,0,0,0,0,6,0,40,0,0,0,0,0,0,0,0,100.58,98.08,105.42,105.08,98.92,108.33,2023,3.9,0.82
ESG_108087,Energy,"Oil, Gas & Consumable Fuels",Royal Dutch Shell PLC,Shell Petroleum Development Company Of Nigeria Abuja Office,Office,Office,Nigeria,9.046278,7.469952,H,H,H,H,H,VH,,1.800725875,,H,Mining,0.008010511,973,0,0,0,0.062,90.021,0.887,,,,0,0,0,0,0,0,0,0,0,0,0,0,0,0,0,0,0,0,0,0,0,0,0,0,0,0,0,0,117.33,113.75,119.17,102.42,99.92,99.42,2023,0,0
ESG_108088,Energy,"Oil, Gas & Consumable Fuels",Royal Dutch Shell PLC,Shell Petroleum Development Company Of Nigeria Lagos Office,Office,Office,Nigeria,6.449836,3.393245,H,H,H,H,H,VH,,9.246879322,M,H,Oil and gas exploration surveys,0.009372915,1117,0,0,0,0,84.582,18.227,,,,0.164,0.166,0.172,0.176,0.182,0.182,0,0,0,0,0,0,11,6,24,25,23,49,36,75,0,0,0,0,0,0,0,0,139.92,138.42,140.25,138.08,140.75,140.92,2023,0,33.37
ESG_108089,Energy,"Oil, Gas & Consumable Fuels",Royal Dutch Shell PLC,Shell Petroleum Development Company Port Harcourt Office,Office,Office,Nigeria,4.8274537,7.0297896,,,,M,,,,2.734833975,,,Oil and gas services,0.51262738,1051,0,0,0,0,49.693,18.069,,,,0.054,0.06,0.056,0.06,0.06,0.062,0,0,0,0,0,0,1,1,7,9,7,32,14,68,0,0,0,0,0,0,0,0,225.92,227.17,227.25,226.92,239,236.17,2023,0,0.19
ESG_108092,Energy,"Oil, Gas & Consumable Fuels",Royal Dutch Shell PLC,Shell Warri Office,Office,Office,Nigeria,5.535581,5.711834,,,,M,,,,4.081905223,,,Oil and gas services,0.002830643,1018,0,0,0,0,81.682,27.156,,,,0.426,0.46,0.44,0.45,0.462,0.518,0,0,0,0,0,0,6,6,16,22,16,50,29,76,0,0,0,0,0,0,0,0,230.83,233,232.75,231.92,241.58,238.83,2023,0,7.72
ESG_108093,Energy,"Oil, Gas & Consumable Fuels",Equinor ASA,Equinor Vassbotnen Stavanger,Office,Office,Norway,58.8924717,5.7107481,H,H,H,H,H,VH,,0.910120374,M,H,Oil and gas exploration surveys,0.065273411,507,0,0,0,0,3.049,1.727,,,,0.03,0.032,0.034,0.03,0.034,0.04,0,0,0,0,0,0,0,0,0,0,0,0,0,0,0,0,0,0,0,0,0,0,130,129.83,130.25,133.75,133.42,139.75,2023,2.56,1.81
ESG_108095,Energy,"Oil, Gas & Consumable Fuels",Equinor ASA,Equinor Forus Vest Sandnes,Office,Office,Norway,58.8899582,5.7094742,H,H,H,H,H,VH,,0.910242433,M,H,Oil and gas exploration surveys,0.299081852,507,0,0,0,0,2.816,1.913,,,,0.03,0.032,0.034,0.03,0.034,0.04,0,0,0,0,0,0,0,0,0,0,0,0,0,0,0,0,0,0,0,0,0,0,130,129.83,130.25,133.75,133.42,139.75,2023,0.43,1.78
ESG_108097,Energy,"Oil, Gas & Consumable Fuels",Royal Dutch Shell PLC,A S Norske Shell Tananger Office,Office,Office,Norway,58.921101,5.596663,H,H,H,H,H,VH,,0.825210775,M,H,Oil and gas exploration surveys,0.207837227,665,0,0,0.022,0.022,0.931,0.931,,,,0.03,0.032,0.034,0.03,0.034,0.04,0,0,0,0,0,0,0,0,0,0,0,0,0,0,0,0,0,0,0,0,0,0,125.92,125.33,126,129.42,129.25,135.5,2023,2.96,27.49
ESG_108099,Energy,"Oil, Gas & Consumable Fuels",Royal Dutch Shell PLC,Shell Marine Products AS Oslo Office,Office,Office,Norway,59.918413,10.686265,,,,M,,,,17.57267763,,,Oil and gas services,0.025862663,756,0,0,0,0.16,20.676,0.084,,,,,,,,,,0,0,0,0,0,0,0,0,0,0,0,0,0,0,1,1,3,0,0,2,0,0,75,74.17,72.67,74.25,73.17,77.5,2023,0.28,4.3
ESG_108101,Energy,"Oil, Gas & Consumable Fuels",Royal Dutch Shell PLC,Shell House Karachi Office,Office,Office,Pakistan,24.8388357,67.0351362,,,,M,,,,86.56016216,,,Oil and gas services,0.00559241,522,0,0,0,0,26.503,10.657,,,,0,0,0,0,0,0,0,0,0,0,0,0,0,0,0,0,0,0,0,0,0,0,0,0,0,0,0,0,15.75,16.25,16.42,16.33,16.17,15.83,2023,0,0
ESG_108105,Energy,"Oil, Gas & Consumable Fuels",Royal Dutch Shell PLC,Agencia Feduro S A Panama Store,Store,Store,Peru,-12.093225,-77.0277619,,H,L,,L,H,,93.54442285,H,H,Oil and gas transportation,0.008196526,278,0,0,0,0,9.908,9.043,,,,,,,,,,0,0,0,0,0,0,0,0,0,0,0,0,0,2,0,0,0,0,0,0,0,0,3.75,5.42,2.75,2.75,4.75,5.5,2023,0,0.53
ESG_108113,Energy,"Oil, Gas & Consumable Fuels",Equinor ASA,Equinor Office Houston,Office,Office,United States of America,29.744401,-95.5605384,,,,M,,,,29.31370053,,,Oil and gas services,0.011093689,664,0,0,0,0,32.388,2.74,,,,0,0,0,0,0,0,0,0,0,0,0,0,5,11,14,18,19,24,15,31,0,0,0,0,0,0,0,0,86,92.5,88.75,90,90.5,79.83,2023,0,0.13
ESG_108114,Energy,"Oil, Gas & Consumable Fuels",Equinor ASA,Equinor Office Washington,Office,Office,United States of America,38.9021656,-77.0268047,,,,M,,,,27.77334138,,,Oil and gas services,0.015330457,712,0,0,0,0,15.326,2.66,,,,0,0,0,0,0,0,0,0,0,0,0,0,0,0,0,1,2,6,3,14,0,0,0,0,0,0,0,0,90.58,94.5,95.67,97.17,95.5,97.25,2023,0,0.72
ESG_108115,Energy,"Oil, Gas & Consumable Fuels",Equinor ASA,Equinor Office Triadelphia,Office,Office,United States of America,40.0530256,-80.6050811,,,,M,,,,4.859413737,,,Oil and gas services,0.043425596,624,0,0,0,0,56.978,6.263,,,,0,0,0,0,0,0,0,0,0,0,0,0,0,0,0,0,0,0,1,1,1,0,1,0,1,1,1,0,94.25,96.75,97.58,99.92,98.25,98.42,2023,0,0.02
ESG_108116,Energy,"Oil, Gas & Consumable Fuels",Royal Dutch Shell PLC,Shell Lima Office,Office,Office,Peru,-12.093225,-77.0277619,,,,M,,,,93.52057341,,,Oil and gas services,0.005151403,278,0,0,0,0,9.924,9.045,,,,,,,,,,0,0,0,0,0,0,0,0,0,0,0,0,0,2,0,0,0,0,0,0,0,0,3.75,5.42,2.75,2.75,4.75,5.5,2023,0,0.53
ESG_108117,Energy,"Oil, Gas & Consumable Fuels",Royal Dutch Shell PLC,Nexo Lubricantes S A Lima Store,Store,Store,Peru,-12.082795,-76.9690146,,,L,,L,,,92.05388756,,,Oil and gas storage,0.011084225,279,0,0,0,0,5.701,4.344,,,,0.062,0.068,0.082,0.066,0.07,0.09,0,0,0,0,0,0,0,0,0,0,0,0,0,0,0,0,0,0,0,0,0,0,3.08,2.96,2.25,1.88,3,3.46,2023,0,0.55
ESG_108118,Energy,"Oil, Gas & Consumable Fuels",Royal Dutch Shell PLC,Shell Shared Services Asia Makati Office,Office,Office,Philippines,14.5579338,121.0172501,,,,M,,,,74.6839518,,,Oil and gas services,0.001041172,766,0,0,0,0,16.378,2.023,13,16,,0,0,0,0,0,0,0,0,0,0,0,0,0,0,0,0,0,0,0,0,0,0,0,0,0,0,0,0,174.67,163.17,179.42,174,170.58,173.17,2023,12.28,6.22
ESG_108120,Energy,"Oil, Gas & Consumable Fuels",Royal Dutch Shell PLC,Pilipinas Shell Foundation Taguig Office,Office,Office,Philippines,14.5487351,121.0475276,,,,M,,,,72.87388992,,,Oil and gas services,0.006923449,783,0,0,0,0,19.265,5.063,14,16,,0,0,0,0,0,0,0,0,0,0,0,0,0,0,0,0,0,0,0,0,0,0,0,0,0,0,0,0,174.67,163.17,179.42,174,170.58,173.17,2023,0,0.61
ESG_108121,Energy,"Oil, Gas & Consumable Fuels",Royal Dutch Shell PLC,Shell Gas Trading Asia Pacific Olongapo City Wholesaler,Wholesaler,Wholesaler,Philippines,14.83338,120.2830177,,H,L,,L,H,,45.84327406,H,H,Oil and gas transportation,0.000937727,779,0,0,0.093,0.035,0.841,0.819,12,16,,0,0,0,0,0,0,0,0,0,0,0,0,0,0,0,0,0,0,0,0,0,0,0,0,0,0,0,0,283.25,270.42,286.83,281,278.83,278.33,2023,1.77,5.01
ESG_108122,Energy,"Oil, Gas & Consumable Fuels",Royal Dutch Shell PLC,Shell Philippines Exploration B V Alabang Office,Office,Office,Philippines,14.4200269,121.0381238,H,H,H,H,H,VH,,31.54217835,M,H,Oil and gas exploration surveys,0.001184687,733,0,0,0,0,30.991,8.238,13,16,,0,0,0,0,0,0,0,0,0,0,0,0,1,0,1,5,2,28,8,59,0,0,0,0,0,0,0,0,166.75,156,171.92,166.67,163.33,166,2023,13.11,4.54
ESG_108123,Energy,"Oil, Gas & Consumable Fuels",Royal Dutch Shell PLC,Braefoot Bay Marine Terminal,Terminal,Oil Terminal,United Kingdom of Great Britain and Northern Ireland,56.038933,-3.317858,,H,L,,L,H,,23.79801773,H,H,Oil and gas transportation,0.562961901,739,0,0,0.435,0.468,0.102,0.096,,,,,,,,,,0,0,0,0,0,0,0,0,0,0,0,0,0,0,0,0,0,0,0,0,0,0,65.25,62.92,64.75,64.67,66.67,68.25,2023,27.34,50.78
ESG_108124,Energy,"Oil, Gas & Consumable Fuels",Royal Dutch Shell PLC,St Fergus Gas Terminal,Terminal,Oil Terminal,United Kingdom of Great Britain and Northern Ireland,57.576474,-1.842678,,H,L,,L,H,,4.059885596,H,H,Oil and gas transportation,6.447029192,671,0,0,0,0,4.072,2.307,,,,0.042,0.048,0.05,0.044,0.048,0.054,0,0,0,0,0,0,0,0,0,0,0,0,0,0,0,0,0,0,0,0,0,0,76.5,76.5,77.08,78.42,78.75,83.42,2023,0.74,17.58
ESG_108126,Energy,"Oil, Gas & Consumable Fuels",Royal Dutch Shell PLC,Nanterre Lubricants Company Office,Office,Office,France,48.898567,2.1845078,,,,M,,,,4.08057715,,,Oil and gas services,0.019490539,756,0,0,0,0,30.328,9.86,,,,0.56,0.558,0.572,0.496,0.51,0.606,0,0,0,0,0,0,0,0,0,0,0,0,0,1,0,0,0,0,0,0,0,0,52.92,55.92,53.92,51.42,54.5,50.17,2023,0.33,7.23
ESG_108127,Energy,"Oil, Gas & Consumable Fuels",Royal Dutch Shell PLC,Shell Polska Warszawa Office,Office,Office,Poland,52.2127642,20.9709035,,,,M,,,,2.060028773,,,Oil and gas services,0.048098907,719,0,0,0,0,8.91,3.936,,,,0,0,0,0,0,0,0,0,0,0,0,0,0,0,0,0,0,0,0,0,1,1,0,0,0,0,0,0,48.92,47.08,49.83,49.42,47.92,48.33,2023,0,1.04
ESG_108128,Energy,"Oil, Gas & Consumable Fuels",Royal Dutch Shell PLC,Qatar Shell Service Company West Bay Office,Office,Office,Qatar,25.319061,51.530778,,,,M,,,,85.58617786,,,Oil and gas services,0.012472874,731,0,0,0,0,7.502,13.551,,,,,,,,,,0,0,0,0,0,0,0,0,0,0,0,0,0,0,0,0,0,0,0,0,0,0,7.17,7.5,6.75,6.08,7.33,6,2023,0.85,34.57
ESG_108134,Energy,"Oil, Gas & Consumable Fuels",Royal Dutch Shell PLC,Shell Romania Bucharest Office,Office,Office,Romania,44.48031,26.1174995,,,,M,,,,26.12910917,,,Oil and gas services,0.089169839,709,0,0,0,0,19.477,8.139,,,,0,0,0,0,0,0,0,0,0,0,0,0,0,0,0,0,0,2,0,5,0,0,0,0,0,0,0,0,39.58,43.67,42.33,42.58,42.83,39.08,2023,1.91,5.21
ESG_108136,Energy,"Oil, Gas & Consumable Fuels",Royal Dutch Shell PLC,Sakhalin Energy Investment Company Moscow Office,Office,Office,Russian Federation,55.7579225,37.5826805,,,,M,,,,60.27873814,,,Oil and gas services,0.048745546,604,0,0,0,0,60.024,3.889,,,,0,0,0,0,0,0,0,0,0,0,0,0,0,0,0,0,0,0,0,0,11,8,9,5,4,5,6,2,68.75,67.12,69.17,69.96,70.33,69.88,2023,3.52,8.09
ESG_108138,Energy,"Oil, Gas & Consumable Fuels",Royal Dutch Shell PLC,Shell Exploration and Production Services RF B V Moscow Office,Office,Office,Russian Federation,55.7785847,37.5877112,H,H,H,H,H,VH,,58.79504871,M,H,Oil and gas exploration surveys,0.012965273,602,0,0,0,0,61,4.821,,,,0,0,0,0,0,0,0,0,0,0,0,0,0,0,0,0,0,0,0,0,0,0,0,0,0,0,0,0,68.75,67.17,69.17,70,70.25,69.83,2023,10.82,7.07
ESG_108141,Energy,"Oil, Gas & Consumable Fuels",Royal Dutch Shell PLC,Shell Beograd Office,Office,Office,Serbia,44.823878,20.389117,,,,M,,,,0.090557033,,,Oil and gas services,0.008043096,744,0,0,0,0,2.667,2.539,,,,0,0,0,0,0,0,0,0,0,0,0,0,0,0,0,0,0,0,0,0,0,0,0,0,0,0,0,0,49.75,55.42,52,51.25,49.33,45.33,2023,0,0.18
ESG_108144,Energy,"Oil, Gas & Consumable Fuels",Royal Dutch Shell PLC,Shell Adria Ljubljana Office,Office,Office,Slovenia,46.084324,14.4811273,,,,M,,,,3.337334644,,,Oil and gas services,0.013307614,970,0,0,0,0.021,3.457,0.579,,,,0,0,0,0,0,0,0,0,0,0,0,0,0,0,0,0,0,0,0,1,0,0,0,0,0,0,0,0,104.42,105.08,105.92,102.5,101.25,98,2023,0,0.19
ESG_108145,Energy,"Oil, Gas & Consumable Fuels",Royal Dutch Shell PLC,Shell Korea Seoul Office,Office,Office,"Korea, Republic of",37.559663,126.963109,,,,M,,,,86.13081347,,,Oil and gas services,0.002061044,446,0,0,0,0,3.031,1.151,,,,0,0,0,0,0,0,0,0,0,0,0,0,0,0,0,0,0,0,0,0,0,0,0,0,0,0,0,0,115.75,116.58,115.08,116.42,117.83,118.17,2023,0,0.82
ESG_108147,Energy,"Oil, Gas & Consumable Fuels",Royal Dutch Shell PLC,Busan Korea Shell Oil Plant,Plant,Oil Plant,"Korea, Republic of",35.1099797,129.0913642,H,H,L,,L,VH,L,61.17733657,,,Oil and gas refining,0.159375341,869,0,0,0,0,11.477,3.447,6,37,,0,0,0,0,0,0,0,0,0,0,0,0,0,0,0,0,0,2,0,8,0,0,0,0,0,0,0,0,123.83,116.92,126.17,121.58,127.83,124.58,2023,2.22,14.84
ESG_108152,Energy,"Oil, Gas & Consumable Fuels",Royal Dutch Shell PLC,Shell Exploration and Production Tanzania Office,Office,Office,"Tanzania, United Republic of",-6.7689929,39.2807006,H,H,H,H,H,VH,,10.1158614,M,H,Oil and gas exploration surveys,0.000700462,2586,1,0,1.993,0,0,2.883,,,,,,,,,,0,0,0,0,0,0,0,0,0,0,0,0,0,0,0,0,0,0,0,0,0,0,93.08,91.42,91.08,94.58,92.83,90.83,2023,,
ESG_108153,Energy,"Oil, Gas & Consumable Fuels",Royal Dutch Shell PLC,Shell Company of Thailand Bangkok Office,Office,Office,Thailand,13.712324,100.557141,H,H,H,H,H,VH,,8.232188815,M,H,Oil and gas exploration surveys,0.013080813,1132,1,0,3.045,0,0,29.321,,,,0,0,0,0,0,0,0,0,0,0,0,0,34,37,48,68,57,77,63,85,0,0,0,0,0,0,0,0,116.25,122.17,116.83,119,120.08,119.42,2023,0.87,12.79
ESG_108155,Energy,"Oil, Gas & Consumable Fuels",Royal Dutch Shell PLC,Shell Western Supply and Trading Bahamas Office,Office,Office,Bahamas,25.032514,-77.513707,H,H,H,H,H,VH,,17.27847571,M,H,Oil and gas exploration surveys,0.012035202,1521,0,0,0,0.184,4.601,0.701,5,11,,,,,,,,0,0,0,0,0,0,0,0,6,7,11,19,16,33,0,0,0,0,0,0,0,0,98.5,96.25,96.5,101.08,101.42,102.33,2023,0,11.61
ESG_108160,Energy,"Oil, Gas & Consumable Fuels",Royal Dutch Shell PLC,Freeport Oil Company Freeport Supplier,Supplier,Supplier,Bahamas,26.516572,-78.765578,,,,M,,,,0,,,Oil and gas services,0.081815392,1493,0,0,0,0,21.059,9.165,10,17,,0,0,0,0,0,0,0,0,0,0,0,0,2,0,8,12,13,21,17,33,0,0,0,0,0,0,0,0,110.17,110.83,109.08,113.17,112.17,113.42,2023,1.02,38.42
ESG_108162,Energy,"Oil, Gas & Consumable Fuels",Royal Dutch Shell PLC,Shell Trinidad & Tobago St Clair Office,Office,Office,Trinidad and Tobago,10.667805,-61.519854,,,,M,,,,17.68186444,,,Oil and gas services,0.002628671,714,0,0,0,0,1.848,3.776,3,27,,0,0,0,0,0,0,0,0,0,0,0,0,0,0,0,0,0,0,0,0,0,0,0,0,0,0,0,0,146.08,145.67,146.83,148.42,149.83,145.67,2023,2.19,1.35
ESG_108164,Energy,"Oil, Gas & Consumable Fuels",Royal Dutch Shell PLC,Shell Tunisia Upstream Tunis Office,Office,Office,Tunisia,36.834898,10.240813,,H,L,,L,H,,92.10227138,H,H,Oil and gas transportation,0.004837706,501,0,0,1.152,1.148,0.154,0.158,,,,0.66,0.642,0.578,0.568,0.492,0.584,0,0,0,0,0,0,0,0,1,1,1,6,3,15,0,0,0,0,0,0,0,0,33.58,31.08,33.08,29,31.92,27.75,2023,0,36.69
ESG_108166,Energy,"Oil, Gas & Consumable Fuels",Royal Dutch Shell PLC,Shell Enerji A S Turkey Office,Office,Office,Turkey,41.06959,29.004868,H,H,H,H,H,VH,,0,M,H,Oil and gas exploration surveys,0.003282372,627,0,0,0,0,2.007,100.026,,,,0,0,0,0,0,0,0,0,0,0,0,0,0,0,0,0,0,0,0,0,0,0,0,0,0,0,0,0,57.25,59.25,60.17,56.33,61.25,51.08,2023,2.27,0.31
